[{"name": "\ub0a8\uc0b0\uc608\uc7a5\ubc84\uc2a4\ud658\uc2b9\uc8fc\ucc28\uc7a5", "coordinates": [126.98852, 37.55946], "color": [76, 233, 137]}, {"name": "\ud1f4\uacc4\ub85c3\uac00.\ud55c\uc625\ub9c8\uc744.\ud55c\uad6d\uc758\uc9d1", "coordinates": [126.99217, 37.56097], "color": [76, 233, 137]}, {"name": "\ucda9\ubb34\ub85c\uc5ed2\ubc88\ucd9c\uad6c.\ub300\ud55c\uadf9\uc7a5\uc55e", "coordinates": [126.99492, 37.56122], "color": [76, 233, 137]}, {"name": "\ud1f4\uacc4\ub85c5\uac00.\uc81c\uc77c\ubcd1\uc6d0", "coordinates": [126.99997, 37.56238], "color": [76, 233, 137]}, {"name": "\uc7a5\ucda9\ubb38\ud654\uccb4\uc721\uc13c\ud130.\uad8c\uae30\uc625\ud65c\ub3d9\ud130", "coordinates": [127.00259, 37.56017], "color": [76, 233, 137]}, {"name": "\ub3d9\ub300\uc785\uad6c\uc5ed.\uc7a5\ucda9\ub3d9", "coordinates": [127.00539, 37.55813], "color": [76, 233, 137]}, {"name": "\uad6d\ub9bd\uadf9\uc7a5.\ubc18\uc580\ud2b8\ub9ac\ud638\ud154", "coordinates": [127.00095, 37.55169], "color": [76, 233, 137]}, {"name": "\ub0a8\uc0b0\ubd81\uce21\uc21c\ud658\ub85c\uc785\uad6c", "coordinates": [126.99882, 37.5507], "color": [76, 233, 137]}, {"name": "\ub0a8\uc0b0\uc11c\uc6b8\ud0c0\uc6cc", "coordinates": [126.99076, 37.55124], "color": [76, 233, 137]}, {"name": "\ub0a8\uc0b0\ub3c4\uc11c\uad00", "coordinates": [126.98185, 37.55234], "color": [76, 233, 137]}, {"name": "\uad50\uc721\uc5f0\uad6c\uc815\ubcf4\uc6d0", "coordinates": [126.98032, 37.55449], "color": [76, 233, 137]}, {"name": "\ub0a8\uc0b0\ucf00\uc774\ube14\uce74.\ub0a8\uc0b0\uc0b0\ucc45\ub85c\uc785\uad6c", "coordinates": [126.98398, 37.55527], "color": [76, 233, 137]}, {"name": "\uc22d\uc758\uc5ec\ub300", "coordinates": [126.9875, 37.55862], "color": [76, 233, 137]}, {"name": "\ub0a8\uc0b0\uc608\uc7a5\ubc84\uc2a4\ud658\uc2b9\uc8fc\ucc28\uc7a5", "coordinates": [126.98852, 37.55946], "color": [76, 233, 137]}, {"name": "\ud1f4\uacc4\ub85c3\uac00.\ud55c\uc625\ub9c8\uc744.\ud55c\uad6d\uc758\uc9d1", "coordinates": [126.99217, 37.56097], "color": [76, 233, 137]}, {"name": "\ucda9\ubb34\ub85c\uc5ed2\ubc88\ucd9c\uad6c.\ub300\ud55c\uadf9\uc7a5\uc55e", "coordinates": [126.99492, 37.56122], "color": [76, 233, 137]}, {"name": "\ud1f4\uacc4\ub85c5\uac00.\uc81c\uc77c\ubcd1\uc6d0", "coordinates": [126.99997, 37.56238], "color": [76, 233, 137]}, {"name": "\uc7a5\ucda9\ubb38\ud654\uccb4\uc721\uc13c\ud130.\uad8c\uae30\uc625\ud65c\ub3d9\ud130", "coordinates": [127.00259, 37.56017], "color": [76, 233, 137]}, {"name": "\ub3d9\ub300\uc785\uad6c\uc5ed.\uc7a5\ucda9\ub3d9", "coordinates": [127.00539, 37.55813], "color": [76, 233, 137]}, {"name": "\uad6d\ub9bd\uadf9\uc7a5.\ubc18\uc580\ud2b8\ub9ac\ud638\ud154", "coordinates": [127.00095, 37.55169], "color": [76, 233, 137]}, {"name": "\ub0a8\uc0b0\ubd81\uce21\uc21c\ud658\ub85c\uc785\uad6c", "coordinates": [126.99882, 37.5507], "color": [76, 233, 137]}, {"name": "\ub0a8\uc0b0\uc11c\uc6b8\ud0c0\uc6cc", "coordinates": [126.99076, 37.55124], "color": [76, 233, 137]}, {"name": "\ub0a8\uc0b0\ub3c4\uc11c\uad00", "coordinates": [126.98185, 37.55234], "color": [76, 233, 137]}, {"name": "\uad50\uc721\uc5f0\uad6c\uc815\ubcf4\uc6d0", "coordinates": [126.98032, 37.55449], "color": [76, 233, 137]}, {"name": "\ub0a8\uc0b0\ucf00\uc774\ube14\uce74.\ub0a8\uc0b0\uc0b0\ucc45\ub85c\uc785\uad6c", "coordinates": [126.98398, 37.55527], "color": [76, 233, 137]}, {"name": "\uc22d\uc758\uc5ec\ub300", "coordinates": [126.9875, 37.55862], "color": [76, 233, 137]}, {"name": "\ub0a8\uc0b0\uc608\uc7a5\ubc84\uc2a4\ud658\uc2b9\uc8fc\ucc28\uc7a5", "coordinates": [126.98852, 37.55946], "color": [76, 233, 137]}, {"name": "\uc6b0\uc774\ub3d9\ub3c4\uc120\uc0ac\uc785\uad6c.\ubd81\ud55c\uc0b0\uc6b0\uc774\uc5ed", "coordinates": [127.01282, 37.6625], "color": [111, 175, 80]}, {"name": "\uc6b0\uc774\ub3d9\uc131\uc6d0\uc544\ud30c\ud2b8", "coordinates": [127.01342, 37.66081], "color": [111, 175, 80]}, {"name": "\uc30d\ubb38\ub3d9\uccad\ud55c\ube4c\ub77c", "coordinates": [127.01501, 37.65746], "color": [111, 175, 80]}, {"name": "\uc30d\ubb38\ub3d9\uc6b0\uc774\ube4c\ub77c", "coordinates": [127.01853, 37.65724], "color": [111, 175, 80]}, {"name": "\ucd08\ub2f9\ucd08\ub4f1\ud559\uad50", "coordinates": [127.02314, 37.65735], "color": [111, 175, 80]}, {"name": "\ubc29\ud559\ub3d9\uc6b0\uc131\uc544\ud30c\ud2b8", "coordinates": [127.02427, 37.6574], "color": [111, 175, 80]}, {"name": "\uccad\uad6c\uc544\ud30c\ud2b8", "coordinates": [127.02641, 37.65752], "color": [111, 175, 80]}, {"name": "\uc30d\ubb38\ub3d9\uc131\uc6d0\uc544\ud30c\ud2b8", "coordinates": [127.02893, 37.65765], "color": [111, 175, 80]}, {"name": "\uc30d\ubb38\ub3d9\ud55c\uc591.\ud604\ub300\uc544\ud30c\ud2b8", "coordinates": [127.03176, 37.6578], "color": [111, 175, 80]}, {"name": "\uc30d\ubb38\ub3d9\uc0bc\uc775\uae08\ud6381\ucc28\uc544\ud30c\ud2b8", "coordinates": [127.03491, 37.658], "color": [111, 175, 80]}, {"name": "\ub3c4\ubd09\uad6c\ubcf4\uac74\uc18c\uc55e", "coordinates": [127.03767, 37.65716], "color": [111, 175, 80]}, {"name": "\ub3c4\ubd09\uad6c\ubbfc\ud68c\uad00.\ub3c4\ubd09\ubb38\ud654\uc6d0", "coordinates": [127.03817, 37.65456], "color": [111, 175, 80]}, {"name": "\uc30d\ubb38\uc5ed", "coordinates": [127.03477, 37.64882], "color": [111, 175, 80]}, {"name": "\uc6b0\uc7741\uad50\uc55e", "coordinates": [127.03265, 37.64529], "color": [111, 175, 80]}, {"name": "\uc218\uc7203\ub3d9\uc6b0\uccb4\uad6d", "coordinates": [127.02904, 37.64124], "color": [111, 175, 80]}, {"name": "\uc218\uc720(\uac15\ubd81\uad6c\uccad)\uc5ed", "coordinates": [127.0261, 37.63848], "color": [111, 175, 80]}, {"name": "\uc218\uc720\uc5ed", "coordinates": [127.02412, 37.63666], "color": [111, 175, 80]}, {"name": "\uc218\uc720\uc2dc\uc7a5.\uc131\uc2e0\uc5ec\ub300\ubbf8\uc544\ucea0\ud37c\uc2a4\uc55e", "coordinates": [127.02417, 37.63123], "color": [111, 175, 80]}, {"name": "\ubbf8\uc544\uc5ed.\uc2e0\uc77c\uc911\uace0", "coordinates": [127.02665, 37.62487], "color": [111, 175, 80]}, {"name": "\ub3c4\ubd09\uc138\ubb34\uc11c.\uc131\ubd81\uc2dc\uc7a5", "coordinates": [127.02872, 37.61971], "color": [111, 175, 80]}, {"name": "\ubbf8\uc544\uc0ac\uac70\ub9ac\uc5ed", "coordinates": [127.02993, 37.61376], "color": [111, 175, 80]}, {"name": "\uc131\uac00\ubcf5\uc9c0\ubcd1\uc6d0", "coordinates": [127.03114, 37.60588], "color": [111, 175, 80]}, {"name": "\uc885\uc554\uc0ac\uac70\ub9ac\uc785\uad6c", "coordinates": [127.03304, 37.60143], "color": [111, 175, 80]}, {"name": "\uc885\uc554\ub3d9\uc8fc\ubbfc\uc13c\ud130", "coordinates": [127.03411, 37.59942], "color": [111, 175, 80]}, {"name": "\uc22d\ub840\ucd08\uad50", "coordinates": [127.03568, 37.59481], "color": [111, 175, 80]}, {"name": "\uace0\ub300\uc55e", "coordinates": [127.03481, 37.58856], "color": [111, 175, 80]}, {"name": "\uc6b0\uc2e0\ud5a5\ubcd1\uc6d0", "coordinates": [127.03161, 37.58514], "color": [111, 175, 80]}, {"name": "\uc548\uc554\uc624\uac70\ub9ac", "coordinates": [127.02901, 37.58261], "color": [111, 175, 80]}, {"name": "\ub300\uad11\ucd08\uad50", "coordinates": [127.02503, 37.57971], "color": [111, 175, 80]}, {"name": "\uc2e0\uc124\ub3d9\ub85c\ud130\ub9ac", "coordinates": [127.02278, 37.57593], "color": [111, 175, 80]}, {"name": "\ub3d9\ubb18\uc55e", "coordinates": [127.01967, 37.57424], "color": [111, 175, 80]}, {"name": "\ub3d9\ub300\ubb38(\ud765\uc778\uc9c0\ubb38)", "coordinates": [127.01205, 37.57195], "color": [111, 175, 80]}, {"name": "\uc885\ub85c6\uac00.\ub3d9\ub300\ubb38\uc885\ud569\uc2dc\uc7a5", "coordinates": [127.00571, 37.57113], "color": [111, 175, 80]}, {"name": "\uc885\ub85c5\uac00.\uad11\uc7a5\uc2dc\uc7a5", "coordinates": [126.99933, 37.57088], "color": [111, 175, 80]}, {"name": "\uc885\ub85c4\uac00.\uc885\ubb18", "coordinates": [126.99528, 37.57063], "color": [111, 175, 80]}, {"name": "\uc885\ub85c3\uac00.\ud0d1\uace8\uacf5\uc6d0", "coordinates": [126.98999, 37.57036], "color": [111, 175, 80]}, {"name": "\uc885\ub85c2\uac00", "coordinates": [126.98625, 37.57026], "color": [111, 175, 80]}, {"name": "\uc885\ub85c1\uac00", "coordinates": [126.98139, 37.57023], "color": [111, 175, 80]}, {"name": "\uad11\ud654\ubb38", "coordinates": [126.97809, 37.57022], "color": [111, 175, 80]}, {"name": "\uc11c\uc6b8\uc5ed\uc0ac\ubc15\ubb3c\uad00.\uacbd\uad50\uc7a5.\uac15\ubd81\uc0bc\uc131\ubcd1\uc6d0", "coordinates": [126.97125, 37.57002], "color": [111, 175, 80]}, {"name": "\uac15\ubd81\uc0bc\uc131\ubcd1\uc6d0", "coordinates": [126.9686, 37.56815], "color": [111, 175, 80]}, {"name": "\uc11c\ub300\ubb38\uacbd\ucc30\uc11c", "coordinates": [126.9684, 37.56341], "color": [111, 175, 80]}, {"name": "\uc11c\uc18c\ubb38", "coordinates": [126.97489, 37.56321], "color": [111, 175, 80]}, {"name": "\uc11c\uc6b8\uc2e0\ubb38\uc0ac", "coordinates": [126.97736, 37.56836], "color": [111, 175, 80]}, {"name": "\uc885\ub85c1\uac00", "coordinates": [126.98091, 37.57012], "color": [111, 175, 80]}, {"name": "\uc885\ub85c2\uac00", "coordinates": [126.98554, 37.57014], "color": [111, 175, 80]}, {"name": "\uc885\ub85c3\uac00.\ud0d1\uace8\uacf5\uc6d0", "coordinates": [126.98956, 37.57024], "color": [111, 175, 80]}, {"name": "\uc885\ub85c4\uac00.\uc885\ubb18", "coordinates": [126.99472, 37.57051], "color": [111, 175, 80]}, {"name": "\uc885\ub85c5\uac00.\uad11\uc7a5\uc2dc\uc7a5", "coordinates": [126.99885, 37.57076], "color": [111, 175, 80]}, {"name": "\uc885\ub85c6\uac00.\ub3d9\ub300\ubb38\uc885\ud569\uc2dc\uc7a5", "coordinates": [127.00346, 37.57096], "color": [111, 175, 80]}, {"name": "\ub3d9\ub300\ubb38\uc5ed.\ud765\uc778\uc9c0\ubb38", "coordinates": [127.01345, 37.5723], "color": [111, 175, 80]}, {"name": "\ub3d9\ubb18\uc55e", "coordinates": [127.01845, 37.57373], "color": [111, 175, 80]}, {"name": "\uc2e0\uc124\ub3d9\uc5ed1\ubc88\ucd9c\uad6c", "coordinates": [127.02332, 37.57663], "color": [111, 175, 80]}, {"name": "\ub300\uad11\uace0\ub4f1\ud559\uad50\uc55e", "coordinates": [127.02556, 37.57978], "color": [111, 175, 80]}, {"name": "\uc548\uc554\uc624\uac70\ub9ac", "coordinates": [127.03, 37.5824], "color": [111, 175, 80]}, {"name": "\uc6b0\uc2e0\ud5a5\ubcd1\uc6d0", "coordinates": [127.03229, 37.58555], "color": [111, 175, 80]}, {"name": "\uace0\ub824\ub300\ud559\uad50\uc55e", "coordinates": [127.03477, 37.58815], "color": [111, 175, 80]}, {"name": "\uc22d\ub840\ucd08\ub4f1\ud559\uad50", "coordinates": [127.03617, 37.5944], "color": [111, 175, 80]}, {"name": "\uc885\uc554\ub3d9\uc8fc\ubbfc\uc13c\ud130", "coordinates": [127.03494, 37.59819], "color": [111, 175, 80]}, {"name": "\uc885\uc554\uc0ac\uac70\ub9ac\uc785\uad6c", "coordinates": [127.03379, 37.60104], "color": [111, 175, 80]}, {"name": "\uc131\uac00\ubcf5\uc9c0\ubcd1\uc6d0", "coordinates": [127.03159, 37.60574], "color": [111, 175, 80]}, {"name": "\ubbf8\uc544\uc0ac\uac70\ub9ac\uc5ed", "coordinates": [127.03021, 37.61289], "color": [111, 175, 80]}, {"name": "\ub3c4\ubd09\uc138\ubb34\uc11c.\uc131\ubd81\uc2dc\uc7a5", "coordinates": [127.02925, 37.61884], "color": [111, 175, 80]}, {"name": "\ubbf8\uc544\uc5ed.\uc2e0\uc77c\uc911\uace0", "coordinates": [127.02714, 37.62411], "color": [111, 175, 80]}, {"name": "\uc218\uc720\uc2dc\uc7a5.\uc131\uc2e0\uc5ec\ub300\ubbf8\uc544\ucea0\ud37c\uc2a4\uc55e", "coordinates": [127.02457, 37.63053], "color": [111, 175, 80]}, {"name": "\uc218\uc720\uc5ed.\uac15\ubd81\uad6c\uccad", "coordinates": [127.02523, 37.63749], "color": [111, 175, 80]}, {"name": "\uc218\uc7203\ub3d9\uc6b0\uccb4\uad6d", "coordinates": [127.02867, 37.64067], "color": [111, 175, 80]}, {"name": "\uc6b0\uc7741\uad50\uc55e", "coordinates": [127.03218, 37.64399], "color": [111, 175, 80]}, {"name": "\uc30d\ubb38\uc5ed", "coordinates": [127.03422, 37.64736], "color": [111, 175, 80]}, {"name": "\ud568\uc11d\ud5cc\uae30\ub150\uad00.\uc815\uc758\uc5ec\uc911\uace0", "coordinates": [127.03739, 37.65263], "color": [111, 175, 80]}, {"name": "\ub3c4\ubd09\uad6c\ubbfc\ud68c\uad00.\ub3c4\ubd09\ubb38\ud654\uc6d0", "coordinates": [127.03822, 37.6541], "color": [111, 175, 80]}, {"name": "\ub3c4\ubd09\uad6c\ubcf4\uac74\uc18c\uc55e", "coordinates": [127.03759, 37.65744], "color": [111, 175, 80]}, {"name": "\uc30d\ubb38\ub3d9\uae08\ud6381\ucc28\uc0bc\uc775\uc544\ud30c\ud2b8", "coordinates": [127.03461, 37.65819], "color": [111, 175, 80]}, {"name": "\uc30d\ubb38\ub3d9\ud604\ub300.\ud55c\uc591\uc544\ud30c\ud2b8", "coordinates": [127.03132, 37.658], "color": [111, 175, 80]}, {"name": "\uc30d\ubb38\ub3d9\uc131\uc6d0\uc544\ud30c\ud2b8", "coordinates": [127.02854, 37.65782], "color": [111, 175, 80]}, {"name": "\uccad\uad6c\uc544\ud30c\ud2b8", "coordinates": [127.02654, 37.65772], "color": [111, 175, 80]}, {"name": "\ubc29\ud559\ub3d9\uc6b0\uc131.\uccad\uad6c\uc544\ud30c\ud2b8", "coordinates": [127.0251, 37.65766], "color": [111, 175, 80]}, {"name": "\ucd08\ub2f9\ucd08\ub4f1\ud559\uad50", "coordinates": [127.0223, 37.65753], "color": [111, 175, 80]}, {"name": "\uc30d\ubb38\ub3d9\uc6b0\uc774\ube4c\ub77c", "coordinates": [127.01811, 37.65744], "color": [111, 175, 80]}, {"name": "\uc30d\ubb38\ub3d9\uccad\ud55c\ube4c\ub77c", "coordinates": [127.01476, 37.65773], "color": [111, 175, 80]}, {"name": "\ub3d9\uc544\uc6b4\uc218\uc55e", "coordinates": [127.014, 37.65891], "color": [111, 175, 80]}, {"name": "\uc6b0\uc774\ub3d9\uc131\uc6d0\uc544\ud30c\ud2b8", "coordinates": [127.01336, 37.66205], "color": [111, 175, 80]}, {"name": "\uc6b0\uc774\ub3d9\ub3c4\uc120\uc0ac\uc785\uad6c.\ubd81\ud55c\uc0b0\uc6b0\uc774\uc5ed", "coordinates": [127.01282, 37.6625], "color": [111, 175, 80]}, {"name": "\uc628\uace1\uc911\ud559\uad50\ub178\uc6d0\uc815\ubcf4\ub3c4\uc11c\uad00", "coordinates": [127.06439, 37.6592], "color": [130, 19, 193]}, {"name": "\uc0c1\uacc4\ucd08\ub4f1\ud559\uad50", "coordinates": [127.06577, 37.65759], "color": [130, 19, 193]}, {"name": "\ub178\uc6d0\uc5ed9\ubc88\ucd9c\uad6c", "coordinates": [127.06199, 37.65609], "color": [130, 19, 193]}, {"name": "\uc0c1\uacc4\uc8fc\uacf53\ub2e8\uc9c0", "coordinates": [127.06091, 37.6521], "color": [130, 19, 193]}, {"name": "\uc0c1\uacc4\uc8fc\uacf52\ub2e8\uc9c0", "coordinates": [127.06162, 37.64964], "color": [130, 19, 193]}, {"name": "\uc0c1\uacc4\uc8fc\uacf51\ub2e8\uc9c0", "coordinates": [127.06283, 37.64713], "color": [130, 19, 193]}, {"name": "\uc5b4\ub9b0\uc774\uad50\ud1b5\uacf5\uc6d0", "coordinates": [127.06266, 37.64534], "color": [130, 19, 193]}, {"name": "\ub9c8\ub4e4\uadfc\ub9b0\uacf5\uc6d0.\ub178\uc6d0\uc5d0\ucf54\uc13c\ud130", "coordinates": [127.05954, 37.64529], "color": [130, 19, 193]}, {"name": "\ucc3d\ub3d9\uc8fc\uacf517\ub2e8\uc9c0", "coordinates": [127.05393, 37.64605], "color": [130, 19, 193]}, {"name": "\ucc3d\ub3d9\uc8fc\uacf54\ub2e8\uc9c0", "coordinates": [127.04808, 37.64531], "color": [130, 19, 193]}, {"name": "\ub3c4\ubd09\ubb38\ud654\uc815\ubcf4\ub3c4\uc11c\uad00", "coordinates": [127.04403, 37.64421], "color": [130, 19, 193]}, {"name": "\ucc3d\ub9bc\ucd08\uad50\ucc3d\ub3d9\uc2e0\ucc3d\uc544\ud30c\ud2b8\uc55e", "coordinates": [127.04073, 37.64163], "color": [130, 19, 193]}, {"name": "\uad6d\ub9bd\ud604\ub300\ubbf8\uc220\uad00\ucc3d\ub3d9\ub808\uc9c0\ub358\uc2dc", "coordinates": [127.03948, 37.64029], "color": [130, 19, 193]}, {"name": "\uc2e0\ucc3d.\ucc3d\ub3d9\uc2dc\uc7a5", "coordinates": [127.03835, 37.63908], "color": [130, 19, 193]}, {"name": "\ucc3d\ub3d9\uc11c\uc6b8\ud0c1\uc8fc\uc55e", "coordinates": [127.03693, 37.63759], "color": [130, 19, 193]}, {"name": "\ubc88\ub3d9\uc0ac\uac70\ub9ac", "coordinates": [127.03531, 37.63618], "color": [130, 19, 193]}, {"name": "\ubd81\ubd80\uc2dc\uc7a5\uc785\uad6c", "coordinates": [127.03202, 37.63538], "color": [130, 19, 193]}, {"name": "\uac15\ubd81\uacbd\ucc30\uc11c\uc785\uad6c", "coordinates": [127.02869, 37.63514], "color": [130, 19, 193]}, {"name": "\uc218\uc720\uc0ac\uac70\ub9ac", "coordinates": [127.02458, 37.63482], "color": [130, 19, 193]}, {"name": "\uc218\uc720\uc2dc\uc7a5.\uc131\uc2e0\uc5ec\ub300\ubbf8\uc544\ucea0\ud37c\uc2a4\uc55e", "coordinates": [127.02417, 37.63123], "color": [130, 19, 193]}, {"name": "\ubbf8\uc544\uc5ed.\uc2e0\uc77c\uc911\uace0", "coordinates": [127.02665, 37.62487], "color": [130, 19, 193]}, {"name": "\ub3c4\ubd09\uc138\ubb34\uc11c.\uc131\ubd81\uc2dc\uc7a5", "coordinates": [127.02872, 37.61971], "color": [130, 19, 193]}, {"name": "\ubbf8\uc544\uc0ac\uac70\ub9ac\uc5ed", "coordinates": [127.02993, 37.61376], "color": [130, 19, 193]}, {"name": "\uc6d4\uace1\ub274\ud0c0\uc6b4", "coordinates": [127.02821, 37.60691], "color": [130, 19, 193]}, {"name": "\uae38\uc74c\ub274\ud0c0\uc6b4", "coordinates": [127.02417, 37.60363], "color": [130, 19, 193]}, {"name": "\ubbf8\uc544\ub9ac\uace0\uac1c.\ubbf8\uc544\ub9ac\uc608\uc220\uadf9\uc7a5", "coordinates": [127.02171, 37.59881], "color": [130, 19, 193]}, {"name": "\ub3c8\uc554\uc0ac\uac70\ub9ac.\uc131\uc2e0\uc5ec\ub300\uc785\uad6c", "coordinates": [127.01813, 37.59374], "color": [130, 19, 193]}, {"name": "\uc0bc\uc120\uad50.\ud55c\uc131\ub300\ud559\uad50", "coordinates": [127.00923, 37.58985], "color": [130, 19, 193]}, {"name": "\ud61c\ud654\ub3d9\ub85c\ud130\ub9ac.\uc5ec\uc6b4\ud615\ud65c\ub3d9\ud130", "coordinates": [127.00174, 37.58624], "color": [130, 19, 193]}, {"name": "\uba85\ub95c3\uac00.\uc131\ub300\uc785\uad6c", "coordinates": [126.99834, 37.58267], "color": [130, 19, 193]}, {"name": "\ucc3d\uacbd\uad81.\uc11c\uc6b8\ub300\ud559\uad50\ubcd1\uc6d0", "coordinates": [126.99657, 37.57918], "color": [130, 19, 193]}, {"name": "\ud604\ub300\uadf8\ub8f9\ube4c\ub529", "coordinates": [127.00053, 37.57587], "color": [130, 19, 193]}, {"name": "\uc774\ud654\ub3d9(\uc774\ud654\uc7a5)", "coordinates": [127.00327, 37.57594], "color": [130, 19, 193]}, {"name": "\ucda9\uc2e0\ub3d9", "coordinates": [127.00628, 37.57402], "color": [130, 19, 193]}, {"name": "\ub3d9\ub300\ubb38", "coordinates": [127.00841, 37.57173], "color": [130, 19, 193]}, {"name": "\uc885\ub85c5\uac00.\ud6a8\uc81c\ucd08\ub4f1\ud559\uad50", "coordinates": [127.00214, 37.57288], "color": [130, 19, 193]}, {"name": "\uc885\ub85c5\uac00.\ud6a8\uc81c\ub3d9.\uae40\uc0c1\uc625\uc758\uac70\ud130", "coordinates": [127.00223, 37.5745], "color": [130, 19, 193]}, {"name": "\ubc29\uc1a1\ud1b5\uc2e0\ub300.\uc774\ud654\uc7a5", "coordinates": [127.00244, 37.57804], "color": [130, 19, 193]}, {"name": "\ud61c\ud654\uc5ed.\ub9c8\ub85c\ub2c8\uc5d0\uacf5\uc6d0", "coordinates": [127.00228, 37.58112], "color": [130, 19, 193]}, {"name": "\ud61c\ud654\uc5ed.\ub3d9\uc131\uc911\uace0(\uc7a5\uba74\ucd1d\ub9ac\uac00\uc625)", "coordinates": [127.00172, 37.58457], "color": [130, 19, 193]}, {"name": "\uc0bc\uc120\uad50.\ud55c\uc131\ub300\ud559\uad50.\uc870\uc18c\uc559\ud65c\ub3d9\ud130", "coordinates": [127.00837, 37.58931], "color": [130, 19, 193]}, {"name": "\ub3c8\uc554\uc0ac\uac70\ub9ac.\uc131\uc2e0\uc5ec\ub300\uc785\uad6c", "coordinates": [127.01784, 37.59331], "color": [130, 19, 193]}, {"name": "\ubbf8\uc544\ub9ac\uace0\uac1c.\ubbf8\uc544\ub9ac\uc608\uc220\uadf9\uc7a5", "coordinates": [127.02182, 37.59792], "color": [130, 19, 193]}, {"name": "\uae38\uc74c\ub274\ud0c0\uc6b4", "coordinates": [127.02369, 37.60318], "color": [130, 19, 193]}, {"name": "\uc6d4\uace1\ub274\ud0c0\uc6b4", "coordinates": [127.0274, 37.60598], "color": [130, 19, 193]}, {"name": "\ubbf8\uc544\uc0ac\uac70\ub9ac\uc5ed", "coordinates": [127.03021, 37.61289], "color": [130, 19, 193]}, {"name": "\ub3c4\ubd09\uc138\ubb34\uc11c.\uc131\ubd81\uc2dc\uc7a5", "coordinates": [127.02925, 37.61884], "color": [130, 19, 193]}, {"name": "\ubbf8\uc544\uc5ed.\uc2e0\uc77c\uc911\uace0", "coordinates": [127.02714, 37.62411], "color": [130, 19, 193]}, {"name": "\uc218\uc720\uc2dc\uc7a5.\uc131\uc2e0\uc5ec\ub300\ubbf8\uc544\ucea0\ud37c\uc2a4\uc55e", "coordinates": [127.02457, 37.63053], "color": [130, 19, 193]}, {"name": "\uc218\uc720\uc0ac\uac70\ub9ac", "coordinates": [127.02423, 37.63461], "color": [130, 19, 193]}, {"name": "\uac15\ubd81\uacbd\ucc30\uc11c\uc785\uad6c", "coordinates": [127.0293, 37.63496], "color": [130, 19, 193]}, {"name": "\ubd81\ubd80\uc2dc\uc7a5\uc785\uad6c", "coordinates": [127.03228, 37.63517], "color": [130, 19, 193]}, {"name": "\ubc88\ub3d9\uc0ac\uac70\ub9ac", "coordinates": [127.03434, 37.63559], "color": [130, 19, 193]}, {"name": "\ucc3d\ub3d9\uc11c\uc6b8\ud0c1\uc8fc\uc55e", "coordinates": [127.03729, 37.63766], "color": [130, 19, 193]}, {"name": "\ucc3d\ub3d9.\uc2e0\ucc3d\uc2dc\uc7a5", "coordinates": [127.03848, 37.63885], "color": [130, 19, 193]}, {"name": "\uad6d\ub9bd\ud604\ub300\ubbf8\uc220\uad00\ucc3d\ub3d9\ub808\uc9c0\ub358\uc2dc", "coordinates": [127.03944, 37.63985], "color": [130, 19, 193]}, {"name": "\ucc3d\ub9bc\ucd08\uad50\ucc3d\ub3d9\uc2e0\ucc3d\uc544\ud30c\ud2b8\uc55e", "coordinates": [127.04104, 37.64154], "color": [130, 19, 193]}, {"name": "\ub3c4\ubd09\ubb38\ud654\uc815\ubcf4\ub3c4\uc11c\uad00", "coordinates": [127.04424, 37.64403], "color": [130, 19, 193]}, {"name": "\ucc3d\ub3d9\uc8fc\uacf54\ub2e8\uc9c0", "coordinates": [127.04861, 37.64518], "color": [130, 19, 193]}, {"name": "\ucc3d\ub3d9\uc8fc\uacf517\ub2e8\uc9c0", "coordinates": [127.05377, 37.64574], "color": [130, 19, 193]}, {"name": "\ub9c8\ub4e4\uadfc\ub9b0\uacf5\uc6d0.\ub178\uc6d0\uc5d0\ucf54\uc13c\ud130", "coordinates": [127.0592, 37.64496], "color": [130, 19, 193]}, {"name": "\uc911\uacc4\uc5ed1\ubc88\ucd9c\uad6c", "coordinates": [127.06391, 37.64606], "color": [130, 19, 193]}, {"name": "\ubc31\ubcd1\uc6d0", "coordinates": [127.06288, 37.64802], "color": [130, 19, 193]}, {"name": "\uc0c1\uacc4\uc8fc\uacf54\ub2e8\uc9c0", "coordinates": [127.06176, 37.65078], "color": [130, 19, 193]}, {"name": "\uc0c1\uacc4\uc8fc\uacf56\ub2e8\uc9c0", "coordinates": [127.06114, 37.65318], "color": [130, 19, 193]}, {"name": "\ub178\uc6d0\uc5ed1\ubc88\ucd9c\uad6c", "coordinates": [127.06337, 37.6562], "color": [130, 19, 193]}, {"name": "\uc0c1\uacc4\ucd08\ub4f1\ud559\uad50", "coordinates": [127.0661, 37.65779], "color": [130, 19, 193]}, {"name": "\uc628\uace1\uc911\ud559\uad50\ub178\uc6d0\uc815\ubcf4\ub3c4\uc11c\uad00", "coordinates": [127.06439, 37.6592], "color": [130, 19, 193]}, {"name": "\uc0bc\ud654\uc0c1\uc6b4", "coordinates": [127.05038, 37.62722], "color": [24, 181, 104]}, {"name": "\uc6d4\uacc42\uad50.\ucc38\ub204\ub9ac\uc544\ud30c\ud2b8", "coordinates": [127.05037, 37.62322], "color": [24, 181, 104]}, {"name": "\uad11\uc6b4\ucd08\uad50\uc55e", "coordinates": [127.05284, 37.6203], "color": [24, 181, 104]}, {"name": "\uc7a5\uc704\ub798\ubbf8\uc548\uc544\ud30c\ud2b8", "coordinates": [127.05225, 37.61888], "color": [24, 181, 104]}, {"name": "\uafc8\uc758\uc232\uc544\uc774\ud30c\ud06c\uc544\ud30c\ud2b8", "coordinates": [127.05126, 37.61827], "color": [24, 181, 104]}, {"name": "\uc7a5\uace1\ucd08\uad50\uc0ac\uac70\ub9ac", "coordinates": [127.04966, 37.61706], "color": [24, 181, 104]}, {"name": "\uc7a5\uace1\ucd08\uad50", "coordinates": [127.04856, 37.61611], "color": [24, 181, 104]}, {"name": "\uad6d\ubbfc\uc740\ud589\uc7a5\uc704\ub3d9\uc9c0\uc810", "coordinates": [127.04877, 37.61388], "color": [24, 181, 104]}, {"name": "\uc7a5\uc7041\ub3d9\uce58\uc548\uc13c\ud130", "coordinates": [127.04579, 37.61392], "color": [24, 181, 104]}, {"name": "\uc7a5\uc7041\ub3d9\uc8fc\ubbfc\uc13c\ud130", "coordinates": [127.04305, 37.61395], "color": [24, 181, 104]}, {"name": "\uc7a5\uc704\ub3d9\uace0\uac1c", "coordinates": [127.0405, 37.61437], "color": [24, 181, 104]}, {"name": "\uc7a5\uc704\ub3d9\uc785\uad6c", "coordinates": [127.03903, 37.61373], "color": [24, 181, 104]}, {"name": "\ucc3d\ubb38\uc5ec\uace0\uc55e", "coordinates": [127.03541, 37.612], "color": [24, 181, 104]}, {"name": "\uc22d\uace1\ucd08\ub4f1\ud559\uad50\uc785\uad6c", "coordinates": [127.03204, 37.61011], "color": [24, 181, 104]}, {"name": "\uc6d4\uace1\ub274\ud0c0\uc6b4", "coordinates": [127.02821, 37.60691], "color": [24, 181, 104]}, {"name": "\uae38\uc74c\ub274\ud0c0\uc6b4", "coordinates": [127.02417, 37.60363], "color": [24, 181, 104]}, {"name": "\ubbf8\uc544\ub9ac\uace0\uac1c.\ubbf8\uc544\ub9ac\uc608\uc220\uadf9\uc7a5", "coordinates": [127.02171, 37.59881], "color": [24, 181, 104]}, {"name": "\ub3c8\uc554\uc0ac\uac70\ub9ac.\uc131\uc2e0\uc5ec\ub300\uc785\uad6c", "coordinates": [127.01813, 37.59374], "color": [24, 181, 104]}, {"name": "\uc0bc\uc120\ub3d9\uc8fc\ubbfc\uc13c\ud130", "coordinates": [127.01435, 37.59061], "color": [24, 181, 104]}, {"name": "\uc131\ubd81\uad6c\uccad.\uc131\ubd81\uacbd\ucc30\uc11c", "coordinates": [127.01726, 37.58824], "color": [24, 181, 104]}, {"name": "\ubcf4\ubb38\uc5ed", "coordinates": [127.01892, 37.58585], "color": [24, 181, 104]}, {"name": "\ubcf4\ubb38\ub3d9\uc131\ub2f9", "coordinates": [127.0208, 37.5824], "color": [24, 181, 104]}, {"name": "\ubcf4\ubb38\ub3d9\uc8fc\ubbfc\uc13c\ud130", "coordinates": [127.02186, 37.58045], "color": [24, 181, 104]}, {"name": "\uc2e0\uc124\ub3d9\ub85c\ud130\ub9ac", "coordinates": [127.02278, 37.57593], "color": [24, 181, 104]}, {"name": "\ub3d9\ubb18\uc55e", "coordinates": [127.01967, 37.57424], "color": [24, 181, 104]}, {"name": "\ub3d9\ub300\ubb38(\ud765\uc778\uc9c0\ubb38)", "coordinates": [127.01205, 37.57195], "color": [24, 181, 104]}, {"name": "\uc885\ub85c6\uac00.\ub3d9\ub300\ubb38\uc885\ud569\uc2dc\uc7a5", "coordinates": [127.00571, 37.57113], "color": [24, 181, 104]}, {"name": "\uc885\ub85c5\uac00.\uad11\uc7a5\uc2dc\uc7a5", "coordinates": [126.99933, 37.57088], "color": [24, 181, 104]}, {"name": "\uc885\ub85c4\uac00.\uc885\ubb18", "coordinates": [126.99528, 37.57063], "color": [24, 181, 104]}, {"name": "\uc885\ub85c3\uac00.\ud0d1\uace8\uacf5\uc6d0", "coordinates": [126.98999, 37.57036], "color": [24, 181, 104]}, {"name": "\uc885\ub85c2\uac00", "coordinates": [126.98625, 37.57026], "color": [24, 181, 104]}, {"name": "\uc885\ub85c1\uac00", "coordinates": [126.98139, 37.57023], "color": [24, 181, 104]}, {"name": "\uad11\ud654\ubb38", "coordinates": [126.97809, 37.57022], "color": [24, 181, 104]}, {"name": "\uc11c\uc6b8\uc5ed\uc0ac\ubc15\ubb3c\uad00.\uacbd\ud76c\uad81\uc55e", "coordinates": [126.97061, 37.56941], "color": [24, 181, 104]}, {"name": "\uacbd\ucc30\uccad.\ub3d9\ubd81\uc544\uc5ed\uc0ac\uc7ac\ub2e8", "coordinates": [126.96922, 37.56248], "color": [24, 181, 104]}, {"name": "\uc11c\uc6b8\uc5ed\ubc84\uc2a4\ud658\uc2b9\uc13c\ud130", "coordinates": [126.97285, 37.55548], "color": [24, 181, 104]}, {"name": "\uc22d\ub840\ubb38", "coordinates": [126.97404, 37.55842], "color": [24, 181, 104]}, {"name": "\ub0a8\ub300\ubb38\uc2dc\uc7a5\uc55e.\uc774\ud68c\uc601\ud65c\ub3d9\ud130", "coordinates": [126.97858, 37.56094], "color": [24, 181, 104]}, {"name": "\ub86f\ub370\uc601\ud504\ub77c\uc790", "coordinates": [126.98201, 37.56289], "color": [24, 181, 104]}, {"name": "\uc6b0\ub9ac\uc740\ud589\uc885\ub85c\uc9c0\uc810", "coordinates": [126.98293, 37.56752], "color": [24, 181, 104]}, {"name": "\uc885\ub85c2\uac00", "coordinates": [126.98554, 37.57014], "color": [24, 181, 104]}, {"name": "\uc885\ub85c3\uac00.\ud0d1\uace8\uacf5\uc6d0", "coordinates": [126.98956, 37.57024], "color": [24, 181, 104]}, {"name": "\uc885\ub85c4\uac00.\uc885\ubb18", "coordinates": [126.99472, 37.57051], "color": [24, 181, 104]}, {"name": "\uc885\ub85c5\uac00.\uad11\uc7a5\uc2dc\uc7a5", "coordinates": [126.99885, 37.57076], "color": [24, 181, 104]}, {"name": "\uc885\ub85c6\uac00.\ub3d9\ub300\ubb38\uc885\ud569\uc2dc\uc7a5", "coordinates": [127.00346, 37.57096], "color": [24, 181, 104]}, {"name": "\ub3d9\ub300\ubb38\uc5ed.\ud765\uc778\uc9c0\ubb38", "coordinates": [127.01345, 37.5723], "color": [24, 181, 104]}, {"name": "\ub3d9\ubb18\uc55e", "coordinates": [127.01845, 37.57373], "color": [24, 181, 104]}, {"name": "\uc2e0\uc124\ub3d9\uc5ed1\ubc88\ucd9c\uad6c", "coordinates": [127.02332, 37.57663], "color": [24, 181, 104]}, {"name": "\ubcf4\ubb38\ub3d9\uc8fc\ubbfc\uc13c\ud130", "coordinates": [127.02249, 37.57984], "color": [24, 181, 104]}, {"name": "\ubcf4\ubb38\ub3d9\uc131\ub2f9", "coordinates": [127.02112, 37.5824], "color": [24, 181, 104]}, {"name": "\ubcf4\ubb38\uc5ed", "coordinates": [127.01999, 37.58449], "color": [24, 181, 104]}, {"name": "\uc131\ubd81\uad6c\uccad.\uc131\ubd81\uacbd\ucc30\uc11c", "coordinates": [127.01723, 37.58861], "color": [24, 181, 104]}, {"name": "\uc0bc\uc120\ub3d9\uc8fc\ubbfc\uc13c\ud130", "coordinates": [127.01472, 37.59069], "color": [24, 181, 104]}, {"name": "\ub3c8\uc554\uc0ac\uac70\ub9ac.\uc131\uc2e0\uc5ec\ub300\uc785\uad6c", "coordinates": [127.01784, 37.59331], "color": [24, 181, 104]}, {"name": "\ubbf8\uc544\ub9ac\uace0\uac1c.\ubbf8\uc544\ub9ac\uc608\uc220\uadf9\uc7a5", "coordinates": [127.02182, 37.59792], "color": [24, 181, 104]}, {"name": "\uae38\uc74c\ub274\ud0c0\uc6b4", "coordinates": [127.02369, 37.60318], "color": [24, 181, 104]}, {"name": "\uc6d4\uace1\ub274\ud0c0\uc6b4", "coordinates": [127.0274, 37.60598], "color": [24, 181, 104]}, {"name": "\uc22d\uace1\ucd08\uad50\uc785\uad6c", "coordinates": [127.03224, 37.60993], "color": [24, 181, 104]}, {"name": "\ucc3d\ubb38\uc5ec\uace0", "coordinates": [127.03582, 37.61185], "color": [24, 181, 104]}, {"name": "\uc7a5\uc704\ub3d9\uace0\uac1c", "coordinates": [127.04065, 37.61425], "color": [24, 181, 104]}, {"name": "\uc7a5\uc7041\ub3d9\uc8fc\ubbfc\uc13c\ud130", "coordinates": [127.04279, 37.61386], "color": [24, 181, 104]}, {"name": "\uc7a5\uc7041\ub3d9\uce58\uc548\uc13c\ud130", "coordinates": [127.04517, 37.61383], "color": [24, 181, 104]}, {"name": "\uad6d\ubbfc\uc740\ud589\uc7a5\uc704\ub3d9\uc9c0\uc810", "coordinates": [127.04874, 37.61352], "color": [24, 181, 104]}, {"name": "\uc7a5\uace1\ucd08\uad50", "coordinates": [127.0487, 37.61609], "color": [24, 181, 104]}, {"name": "\uc7a5\uace1\ucd08\uad50\uc0ac\uac70\ub9ac", "coordinates": [127.04986, 37.617], "color": [24, 181, 104]}, {"name": "\uafc8\uc758\uc232\uc544\uc774\ud30c\ud06c\uc544\ud30c\ud2b8", "coordinates": [127.05151, 37.61805], "color": [24, 181, 104]}, {"name": "\uc7a5\uc704\ub798\ubbf8\uc548\uc544\ud30c\ud2b8", "coordinates": [127.05249, 37.61867], "color": [24, 181, 104]}, {"name": "\uad11\uc6b4\ucd08\uad50", "coordinates": [127.05292, 37.62056], "color": [24, 181, 104]}, {"name": "\uc6d4\uacc42\uad50", "coordinates": [127.05013, 37.62383], "color": [24, 181, 104]}, {"name": "\uc6d4\uacc4\uc8fc\uacf51\ub2e8\uc9c0\uc544\ud30c\ud2b8\uc55e", "coordinates": [127.05156, 37.62626], "color": [24, 181, 104]}, {"name": "\uc0bc\ud654\uc0c1\uc6b4", "coordinates": [127.05038, 37.62722], "color": [24, 181, 104]}, {"name": "\uac15\ubd81\uccad\uc18c\ub144\uc218\ub828\uad00", "coordinates": [127.00694, 37.64565], "color": [198, 227, 163]}, {"name": "\ubb34\ub7c9\uc0ac\uc785\uad6c", "coordinates": [127.00794, 37.64621], "color": [198, 227, 163]}, {"name": "\uad6d\ub9bd4.19\ubbfc\uc8fc\ubb18\uc9c0", "coordinates": [127.009, 37.64677], "color": [198, 227, 163]}, {"name": "\uad6d\ub9bd4.19\ubbfc\uc8fc\ubb18\uc9c0\uc785\uad6c\uc0ac\uac70\ub9ac", "coordinates": [127.01367, 37.64798], "color": [198, 227, 163]}, {"name": "\uc778\uc218\ub3d9\uc7a5\ubbf8\uc6d0", "coordinates": [127.01553, 37.64503], "color": [198, 227, 163]}, {"name": "\uac00\uc624\ub9ac\uc5ed", "coordinates": [127.01658, 37.6419], "color": [198, 227, 163]}, {"name": "\uc6b0\uc774\ucd08\ub4f1\ud559\uad50", "coordinates": [127.01711, 37.63651], "color": [198, 227, 163]}, {"name": "\ud654\uacc4\uc0ac\uc785\uad6c", "coordinates": [127.01747, 37.63334], "color": [198, 227, 163]}, {"name": "\ube68\ub798\uace8\uc785\uad6c", "coordinates": [127.01777, 37.62986], "color": [198, 227, 163]}, {"name": "\ub86f\ub370\ub9c8\ud2b8\uc0bc\uc591\uc810.\ub798\ubbf8\uc5481\ucc28\uc544\ud30c\ud2b8", "coordinates": [127.01822, 37.62529], "color": [198, 227, 163]}, {"name": "\uc0bc\uc591\ucd08\ub4f1\ud559\uad50", "coordinates": [127.01913, 37.62307], "color": [198, 227, 163]}, {"name": "\uac15\ubd81\uccad\uc18c\ub144\ubb38\ud654\uc815\ubcf4\ub3c4\uc11c\uad00\uc785\uad6c", "coordinates": [127.02025, 37.62165], "color": [198, 227, 163]}, {"name": "\uc0bc\uc591\ub3d9\uc0ac\uac70\ub9ac", "coordinates": [127.02131, 37.61809], "color": [198, 227, 163]}, {"name": "\uc1a1\ucc9c\ucd08\ub4f1\ud559\uad50.\ubbf8\uc544\ub274\ud0c0\uc6b4\uc785\uad6c", "coordinates": [127.02211, 37.61546], "color": [198, 227, 163]}, {"name": "\ubbf8\uc544\ucd08\uad50", "coordinates": [127.02204, 37.61153], "color": [198, 227, 163]}, {"name": "\uae38\uc74c\ub3d9\ub3d9\ubd80\uc544\ud30c\ud2b8", "coordinates": [127.02327, 37.60786], "color": [198, 227, 163]}, {"name": "\uae38\uc74c\ub274\ud0c0\uc6b4", "coordinates": [127.02417, 37.60363], "color": [198, 227, 163]}, {"name": "\ubbf8\uc544\ub9ac\uace0\uac1c.\ubbf8\uc544\ub9ac\uc608\uc220\uadf9\uc7a5", "coordinates": [127.02171, 37.59881], "color": [198, 227, 163]}, {"name": "\ub3c8\uc554\uc0ac\uac70\ub9ac.\uc131\uc2e0\uc5ec\ub300\uc785\uad6c", "coordinates": [127.01813, 37.59374], "color": [198, 227, 163]}, {"name": "\uc0bc\uc120\uad50.\ud55c\uc131\ub300\ud559\uad50", "coordinates": [127.00923, 37.58985], "color": [198, 227, 163]}, {"name": "\ud61c\ud654\ub3d9\ub85c\ud130\ub9ac.\uc5ec\uc6b4\ud615\ud65c\ub3d9\ud130", "coordinates": [127.00174, 37.58624], "color": [198, 227, 163]}, {"name": "\uba85\ub95c3\uac00.\uc131\ub300\uc785\uad6c", "coordinates": [126.99834, 37.58267], "color": [198, 227, 163]}, {"name": "\ucc3d\uacbd\uad81.\uc11c\uc6b8\ub300\ud559\uad50\ubcd1\uc6d0", "coordinates": [126.99657, 37.57918], "color": [198, 227, 163]}, {"name": "\uc6d0\ub0a8\ub3d9", "coordinates": [126.99734, 37.57453], "color": [198, 227, 163]}, {"name": "\uad11\uc7a5\uc2dc\uc7a5", "coordinates": [126.99774, 37.5695], "color": [198, 227, 163]}, {"name": "\uc911\uad6c\uccad\uc55e.\ub355\uc218\uc911\ud559\uad50", "coordinates": [126.99814, 37.56477], "color": [198, 227, 163]}, {"name": "\ucda9\ubb34\ub85c\uc5ed8\ubc88\ucd9c\uad6c.\ub300\ud55c\uadf9\uc7a5\uc55e", "coordinates": [126.99649, 37.56204], "color": [198, 227, 163]}, {"name": "\ud1f4\uacc4\ub85c3\uac00.\ud55c\uc625\ub9c8\uc744.\ud55c\uad6d\uc758\uc9d1", "coordinates": [126.99178, 37.56125], "color": [198, 227, 163]}, {"name": "\ud1f4\uacc4\ub85c2\uac00.\uba85\ub3d9\uc5ed", "coordinates": [126.98449, 37.56089], "color": [198, 227, 163]}, {"name": "\ub0a8\ub300\ubb38\uc2dc\uc7a5.\ud68c\ud604\uc5ed", "coordinates": [126.97777, 37.55827], "color": [198, 227, 163]}, {"name": "\uc22d\ub840\ubb38.\ud55c\uad6d\uc77c\ubcf4", "coordinates": [126.97374, 37.55877], "color": [198, 227, 163]}, {"name": "\uc11c\uc6b8\uc5ed\ubc84\uc2a4\ud658\uc2b9\uc13c\ud130", "coordinates": [126.97276, 37.55539], "color": [198, 227, 163]}, {"name": "\ub0a8\ub300\ubb38\uc2dc\uc7a5.\ud68c\ud604\uc5ed", "coordinates": [126.97846, 37.55849], "color": [198, 227, 163]}, {"name": "\uba85\ub3d9\uc785\uad6c", "coordinates": [126.98524, 37.56065], "color": [198, 227, 163]}, {"name": "\ud1f4\uacc4\ub85c3\uac00.\ud55c\uc625\ub9c8\uc744.\ud55c\uad6d\uc758\uc9d1", "coordinates": [126.99217, 37.56097], "color": [198, 227, 163]}, {"name": "\ucda9\ubb34\ub85c\uc5ed2\ubc88\ucd9c\uad6c.\ub300\ud55c\uadf9\uc7a5\uc55e", "coordinates": [126.99492, 37.56122], "color": [198, 227, 163]}, {"name": "\ud1f4\uacc4\ub85c5\uac00.\uc81c\uc77c\ubcd1\uc6d0", "coordinates": [126.99997, 37.56238], "color": [198, 227, 163]}, {"name": "\uc744\uc9c0\ub85c5\uac00.\ud6c8\ub828\uc6d0\uc885\ud569\uccb4\uc721\uad00", "coordinates": [127.00259, 37.56582], "color": [198, 227, 163]}, {"name": "\ubc29\uc0b0\uc2dc\uc7a5.\ud6c8\ub828\uc6d0\uc885\ud569\uccb4\uc721\uad00", "coordinates": [127.0024, 37.56796], "color": [198, 227, 163]}, {"name": "\uc885\ub85c5\uac00", "coordinates": [127.00218, 37.57056], "color": [198, 227, 163]}, {"name": "\uc885\ub85c5\uac00.\ud6a8\uc81c\ucd08\ub4f1\ud559\uad50", "coordinates": [127.00214, 37.57288], "color": [198, 227, 163]}, {"name": "\uc885\ub85c5\uac00.\ud6a8\uc81c\ub3d9.\uae40\uc0c1\uc625\uc758\uac70\ud130", "coordinates": [127.00223, 37.5745], "color": [198, 227, 163]}, {"name": "\ubc29\uc1a1\ud1b5\uc2e0\ub300.\uc774\ud654\uc7a5", "coordinates": [127.00244, 37.57804], "color": [198, 227, 163]}, {"name": "\ud61c\ud654\uc5ed.\ub9c8\ub85c\ub2c8\uc5d0\uacf5\uc6d0", "coordinates": [127.00228, 37.58112], "color": [198, 227, 163]}, {"name": "\ud61c\ud654\uc5ed.\ub3d9\uc131\uc911\uace0(\uc7a5\uba74\ucd1d\ub9ac\uac00\uc625)", "coordinates": [127.00172, 37.58457], "color": [198, 227, 163]}, {"name": "\uc0bc\uc120\uad50.\ud55c\uc131\ub300\ud559\uad50.\uc870\uc18c\uc559\ud65c\ub3d9\ud130", "coordinates": [127.00837, 37.58931], "color": [198, 227, 163]}, {"name": "\ub3c8\uc554\uc0ac\uac70\ub9ac.\uc131\uc2e0\uc5ec\ub300\uc785\uad6c", "coordinates": [127.01784, 37.59331], "color": [198, 227, 163]}, {"name": "\ubbf8\uc544\ub9ac\uace0\uac1c.\ubbf8\uc544\ub9ac\uc608\uc220\uadf9\uc7a5", "coordinates": [127.02182, 37.59792], "color": [198, 227, 163]}, {"name": "\ub3c8\uc554\ub3d9\uc0bc\uc131\uc544\ud30c\ud2b8\uc785\uad6c", "coordinates": [127.02458, 37.60187], "color": [198, 227, 163]}, {"name": "\uae38\uc74c\ub3d9\ub3d9\ubd80\uc544\ud30c\ud2b8", "coordinates": [127.02354, 37.60781], "color": [198, 227, 163]}, {"name": "\ubbf8\uc544\ucd08\uad50", "coordinates": [127.02247, 37.61089], "color": [198, 227, 163]}, {"name": "\uc1a1\ucc9c\ucd08\ub4f1\ud559\uad50.\ubbf8\uc544\ub274\ud0c0\uc6b4\uc785\uad6c", "coordinates": [127.02231, 37.6141], "color": [198, 227, 163]}, {"name": "\uc0bc\uc591\ub3d9\uc0ac\uac70\ub9ac", "coordinates": [127.02146, 37.61853], "color": [198, 227, 163]}, {"name": "\uac15\ubd81\uccad\uc18c\ub144\ubb38\ud654\uc815\ubcf4\ub3c4\uc11c\uad00\uc785\uad6c", "coordinates": [127.02059, 37.62152], "color": [198, 227, 163]}, {"name": "\uc0bc\uc591\ucd08\ub4f1\ud559\uad50", "coordinates": [127.01909, 37.62341], "color": [198, 227, 163]}, {"name": "\ub86f\ub370\ub9c8\ud2b8\uc0bc\uc591\uc810.\ub798\ubbf8\uc5481\ucc28\uc544\ud30c\ud2b8", "coordinates": [127.01848, 37.6253], "color": [198, 227, 163]}, {"name": "\ube68\ub798\uace8\uc785\uad6c", "coordinates": [127.01798, 37.63001], "color": [198, 227, 163]}, {"name": "\ud654\uacc4\uc0ac\uc785\uad6c", "coordinates": [127.0177, 37.63325], "color": [198, 227, 163]}, {"name": "\uc6b0\uc774\ucd08\ub4f1\ud559\uad50", "coordinates": [127.01736, 37.63681], "color": [198, 227, 163]}, {"name": "\uac00\uc624\ub9ac\uc5ed", "coordinates": [127.01681, 37.64168], "color": [198, 227, 163]}, {"name": "\uc778\uc218\ub3d9\uc7a5\ubbf8\uc6d0", "coordinates": [127.016, 37.6446], "color": [198, 227, 163]}, {"name": "\uad6d\ub9bd4.19\ubbfc\uc8fc\ubb18\uc9c0\uc785\uad6c\uc0ac\uac70\ub9ac", "coordinates": [127.01345, 37.64815], "color": [198, 227, 163]}, {"name": "\uad6d\ub9bd4.19\ubbfc\uc8fc\ubb18\uc9c0", "coordinates": [127.00896, 37.64695], "color": [198, 227, 163]}, {"name": "\ubb34\ub7c9\uc0ac\uc785\uad6c", "coordinates": [127.00784, 37.64632], "color": [198, 227, 163]}, {"name": "\uac15\ubd81\uccad\uc18c\ub144\uc218\ub828\uad00", "coordinates": [127.00672, 37.64577], "color": [198, 227, 163]}, {"name": "7\ub2e8\uc9c0\uc601\uc5c5\uc18c", "coordinates": [127.06374, 37.66028], "color": [127, 161, 171]}, {"name": "\uc0c1\uacc410\ub3d9\uc6b0\uccb4\uad6d", "coordinates": [127.06282, 37.66073], "color": [127, 161, 171]}, {"name": "\ub300\ub9bc\uc544\ud30c\ud2b8\uc0c1\uac00", "coordinates": [127.05868, 37.66034], "color": [127, 161, 171]}, {"name": "\ub3c4\ubd09\uba74\ud5c8\uc2dc\ud5d8\uc7a5", "coordinates": [127.05954, 37.65734], "color": [127, 161, 171]}, {"name": "\uc0c1\uacc4\uc8fc\uacf53\ub2e8\uc9c0", "coordinates": [127.06091, 37.6521], "color": [127, 161, 171]}, {"name": "\uc0c1\uacc4\uc8fc\uacf52\ub2e8\uc9c0", "coordinates": [127.06162, 37.64964], "color": [127, 161, 171]}, {"name": "\uc0c1\uacc4\uc8fc\uacf51\ub2e8\uc9c0", "coordinates": [127.06283, 37.64713], "color": [127, 161, 171]}, {"name": "\uc911\uacc4\uc5ed", "coordinates": [127.06443, 37.64386], "color": [127, 161, 171]}, {"name": "\ub178\uc6d0\uad6c\ubbfc\uc758\uc804\ub2f9", "coordinates": [127.06642, 37.63939], "color": [127, 161, 171]}, {"name": "\ud558\uacc4\uc5ed", "coordinates": [127.06766, 37.63667], "color": [127, 161, 171]}, {"name": "\ud558\uacc4\uc7a5\ubbf8\uc544\ud30c\ud2b8", "coordinates": [127.0688, 37.63408], "color": [127, 161, 171]}, {"name": "\uc11c\uc6b8\uacfc\ud559\uae30\uc220\ub300\uc785\uad6c", "coordinates": [127.07147, 37.62829], "color": [127, 161, 171]}, {"name": "\uacf5\ub989\uc5ed4\ubc88\ucd9c\uad6c", "coordinates": [127.07228, 37.62675], "color": [127, 161, 171]}, {"name": "\uacf5\ub989\uc2dc\uc7a5", "coordinates": [127.07362, 37.62312], "color": [127, 161, 171]}, {"name": "\ud0dc\ub989\uc785\uad6c\uc5ed3\ubc88\ucd9c\uad6c", "coordinates": [127.07484, 37.61943], "color": [127, 161, 171]}, {"name": "\uadf9\ub3d9\ub298\ud478\ub978\uc544\ud30c\ud2b8", "coordinates": [127.0764, 37.6147], "color": [127, 161, 171]}, {"name": "\ubb35\ub3d9\uc0bc\uac70\ub9ac.\uba39\uace8\uc5ed", "coordinates": [127.07712, 37.61256], "color": [127, 161, 171]}, {"name": "\uba39\uace8\uc5ed", "coordinates": [127.07785, 37.60894], "color": [127, 161, 171]}, {"name": "\ud55c\uad6d\uc804\ub825\ub3d9\ubd80\uc9c0\uc0ac", "coordinates": [127.0782, 37.60713], "color": [127, 161, 171]}, {"name": "\uc9c0\ud558\ucca07\ud638\uc120\uc911\ud654\uc5ed", "coordinates": [127.07916, 37.60265], "color": [127, 161, 171]}, {"name": "\uad6d\ubbfc\uc740\ud589\uc911\ud654\ub3d9\uc9c0\uc810", "coordinates": [127.07986, 37.59884], "color": [127, 161, 171]}, {"name": "\uc911\ub791\uc5ed.\ub3d9\ubd80\uc2dc\uc7a5", "coordinates": [127.07617, 37.59398], "color": [127, 161, 171]}, {"name": "\uc911\ub791\uad50", "coordinates": [127.0677, 37.5917], "color": [127, 161, 171]}, {"name": "\uc0bc\uc721\uc11c\uc6b8\ubcd1\uc6d0", "coordinates": [127.06069, 37.58965], "color": [127, 161, 171]}, {"name": "\uc2dc\uc870\uc0ac\uc0bc\uac70\ub9ac", "coordinates": [127.05689, 37.58871], "color": [127, 161, 171]}, {"name": "\ub5a1\uc804\uad50\uc0ac\uac70\ub9ac.\ub3d9\ub300\ubb38\ub178\uc778\ubcf5\uc9c0\uad00", "coordinates": [127.05211, 37.5865], "color": [127, 161, 171]}, {"name": "\uccad\ub7c9\ub9ac\ubbf8\uc8fc\uc544\ud30c\ud2b8.\ub3d9\ub300\ubb38\uc138\ubb34\uc11c", "coordinates": [127.0484, 37.58278], "color": [127, 161, 171]}, {"name": "\uccad\ub7c9\ub9ac\uc5ed\ud658\uc2b9\uc13c\ud0c0", "coordinates": [127.04543, 37.5804], "color": [127, 161, 171]}, {"name": "\uccad\ub7c9\ub9ac.\uccad\uacfc\ubb3c\ub3c4\ub9e4\uc2dc\uc7a5", "coordinates": [127.04071, 37.57878], "color": [127, 161, 171]}, {"name": "\uc81c\uae30\ub3d9\uc5ed.\uc11c\uc6b8\uc57d\ub839\uc2dc", "coordinates": [127.03533, 37.5782], "color": [127, 161, 171]}, {"name": "\uc6a9\ub450\ub3d9\uc0ac\uac70\ub9ac.\ud55c\uad6d\uc758\ub958\uc2dc\ud5d8\uc5f0\uad6c\uc6d0", "coordinates": [127.02839, 37.57715], "color": [127, 161, 171]}, {"name": "\uc2e0\uc124\ub3d9\uc5ed", "coordinates": [127.02384, 37.57583], "color": [127, 161, 171]}, {"name": "\ub3d9\ubb18\uc55e", "coordinates": [127.01967, 37.57424], "color": [127, 161, 171]}, {"name": "\ub3d9\ub300\ubb38(\ud765\uc778\uc9c0\ubb38)", "coordinates": [127.01205, 37.57195], "color": [127, 161, 171]}, {"name": "\uc885\ub85c\uc911\ubd80\uc0c8\ub9c8\uc744\uae08\uace0", "coordinates": [127.00659, 37.57242], "color": [127, 161, 171]}, {"name": "\ub3d9\ub300\ubb38\uc5ed\uc0ac\ubb38\ud654\uacf5\uc6d0", "coordinates": [127.00836, 37.56735], "color": [127, 161, 171]}, {"name": "\uad11\ud76c\ub3d9", "coordinates": [127.00721, 37.56505], "color": [127, 161, 171]}, {"name": "\ud1f4\uacc4\ub85c6\uac00", "coordinates": [127.00334, 37.56357], "color": [127, 161, 171]}, {"name": "\ud1f4\uacc4\ub85c5\uac00", "coordinates": [126.99973, 37.56278], "color": [127, 161, 171]}, {"name": "\ucda9\ubb34\ub85c\uc5ed8\ubc88\ucd9c\uad6c.\ub300\ud55c\uadf9\uc7a5\uc55e", "coordinates": [126.99649, 37.56204], "color": [127, 161, 171]}, {"name": "\ud1f4\uacc4\ub85c3\uac00.\ud55c\uc625\ub9c8\uc744.\ud55c\uad6d\uc758\uc9d1", "coordinates": [126.99178, 37.56125], "color": [127, 161, 171]}, {"name": "\ud1f4\uacc4\ub85c2\uac00.\uba85\ub3d9\uc5ed", "coordinates": [126.98449, 37.56089], "color": [127, 161, 171]}, {"name": "\ub0a8\ub300\ubb38\uc2dc\uc7a5.\ud68c\ud604\uc5ed", "coordinates": [126.97777, 37.55827], "color": [127, 161, 171]}, {"name": "\uc22d\ub840\ubb38", "coordinates": [126.97404, 37.55842], "color": [127, 161, 171]}, {"name": "\ub0a8\ub300\ubb38\uc2dc\uc7a5\uc55e.\uc774\ud68c\uc601\ud65c\ub3d9\ud130", "coordinates": [126.97858, 37.56094], "color": [127, 161, 171]}, {"name": "\ub86f\ub370\uc601\ud504\ub77c\uc790", "coordinates": [126.98201, 37.56289], "color": [127, 161, 171]}, {"name": "\uc744\uc9c0\ub85c\uc785\uad6c.\ub85c\uc584\ud638\ud154", "coordinates": [126.98539, 37.56588], "color": [127, 161, 171]}, {"name": "\uc744\uc9c0\ub85c2\uac00.\ud30c\uc778\uc5d0\ube44\ub274", "coordinates": [126.98883, 37.56601], "color": [127, 161, 171]}, {"name": "\uc744\uc9c0\ub85c3\uac00", "coordinates": [126.99133, 37.56612], "color": [127, 161, 171]}, {"name": "\uc744\uc9c0\ub85c4\uac00.\ubca0\uc2a4\ud2b8\uc6e8\uc2a4\ud134\uad6d\ub3c4", "coordinates": [126.99685, 37.5664], "color": [127, 161, 171]}, {"name": "\uc744\uc9c0\ub85c5\uac00.\uc911\ubd80\uc2dc\uc7a5", "coordinates": [127.00112, 37.56662], "color": [127, 161, 171]}, {"name": "\uc744\uc9c0\ub85c6\uac00.\uad6d\ub9bd\uc911\uc559\uc758\ub8cc\uc6d0", "coordinates": [127.00638, 37.56607], "color": [127, 161, 171]}, {"name": "\ub3d9\ub300\ubb38\uc5ed\uc0ac\ubb38\ud654\uacf5\uc6d0", "coordinates": [127.00902, 37.5676], "color": [127, 161, 171]}, {"name": "\ub3d9\ub300\ubb38\uc5ed.\ud765\uc778\uc9c0\ubb38", "coordinates": [127.01345, 37.5723], "color": [127, 161, 171]}, {"name": "\ub3d9\ubb18\uc55e", "coordinates": [127.01845, 37.57373], "color": [127, 161, 171]}, {"name": "\uc2e0\uc124\ub3d9\uc5ed", "coordinates": [127.02504, 37.57615], "color": [127, 161, 171]}, {"name": "\uc6a9\ub450\ub3d9\uc0ac\uac70\ub9ac", "coordinates": [127.02999, 37.57753], "color": [127, 161, 171]}, {"name": "\uc81c\uae30\ub3d9\uc5ed.\uc11c\uc6b8\uc57d\ub839\uc2dc", "coordinates": [127.03762, 37.57814], "color": [127, 161, 171]}, {"name": "\uccad\ub7c9\ub9ac\uc218\uc0b0\uc2dc\uc7a5", "coordinates": [127.0419, 37.57895], "color": [127, 161, 171]}, {"name": "\uccad\ub7c9\ub9ac\uc5ed\ud658\uc2b9\uc13c\ud130", "coordinates": [127.04567, 37.58037], "color": [127, 161, 171]}, {"name": "\uc11c\uc6b8\uc131\uc2ec\ubcd1\uc6d0", "coordinates": [127.0509, 37.58461], "color": [127, 161, 171]}, {"name": "\ud718\uacbd\ub3d9\uc785\uad6c", "coordinates": [127.05506, 37.58769], "color": [127, 161, 171]}, {"name": "\uc0bc\uc721\uc11c\uc6b8\ubcd1\uc6d0", "coordinates": [127.06207, 37.58996], "color": [127, 161, 171]}, {"name": "\uc911\ub791\uad50", "coordinates": [127.06692, 37.59137], "color": [127, 161, 171]}, {"name": "\uc911\ub791\uc5ed.\ub3d9\ubd80\uc2dc\uc7a5", "coordinates": [127.0751, 37.59359], "color": [127, 161, 171]}, {"name": "\uc911\ud654\ub3d9\ud55c\uc2e0\uc544\ud30c\ud2b8", "coordinates": [127.08017, 37.59908], "color": [127, 161, 171]}, {"name": "\uc9c0\ud558\ucca07\ud638\uc120\uc911\ud654\uc5ed", "coordinates": [127.07945, 37.60284], "color": [127, 161, 171]}, {"name": "\ud55c\uad6d\uc804\ub825\ub3d9\ubd80\uc9c0\uc0ac", "coordinates": [127.07883, 37.60604], "color": [127, 161, 171]}, {"name": "\uba39\uace8\uc5ed", "coordinates": [127.07818, 37.60936], "color": [127, 161, 171]}, {"name": "\uba39\uace8\uc5ed.\ubb35\ub3d9\uc790\uc774\uc544\ud30c\ud2b8", "coordinates": [127.0771, 37.61359], "color": [127, 161, 171]}, {"name": "\ubb35\ub3d9\uc790\uc774.\uc2e0\ub3c4\ube0c\ub798\ub274\uc544\ud30c\ud2b8", "coordinates": [127.07659, 37.61527], "color": [127, 161, 171]}, {"name": "\ud0dc\ub989\uc785\uad6c\uc5ed4\ubc88\ucd9c\uad6c", "coordinates": [127.0752, 37.61959], "color": [127, 161, 171]}, {"name": "\uacf5\ub989\uc2dc\uc7a5", "coordinates": [127.07418, 37.62274], "color": [127, 161, 171]}, {"name": "\uacf5\ub989\uc5ed1\ubc88\ucd9c\uad6c", "coordinates": [127.07279, 37.62658], "color": [127, 161, 171]}, {"name": "\uc11c\uc6b8\uacfc\ud559\uae30\uc220\ub300\uc785\uad6c", "coordinates": [127.0718, 37.62847], "color": [127, 161, 171]}, {"name": "\ud558\uacc4\ubbf8\uc131\uc544\ud30c\ud2b8", "coordinates": [127.06897, 37.63485], "color": [127, 161, 171]}, {"name": "\ud558\uacc4\uc5ed", "coordinates": [127.06821, 37.63657], "color": [127, 161, 171]}, {"name": "\uc11c\uc6b8\uc2dc\ub9bd\ubd81\uc11c\uc6b8\ubbf8\uc220\uad00", "coordinates": [127.06639, 37.64059], "color": [127, 161, 171]}, {"name": "\uc911\uacc4\uc5ed", "coordinates": [127.06533, 37.64297], "color": [127, 161, 171]}, {"name": "\ubc31\ubcd1\uc6d0", "coordinates": [127.06288, 37.64802], "color": [127, 161, 171]}, {"name": "\uc0c1\uacc4\uc8fc\uacf54\ub2e8\uc9c0", "coordinates": [127.06176, 37.65078], "color": [127, 161, 171]}, {"name": "\uc0c1\uacc4\uc8fc\uacf56\ub2e8\uc9c0", "coordinates": [127.06114, 37.65318], "color": [127, 161, 171]}, {"name": "\ub3c4\ubd09\uba74\ud5c8\uc2dc\ud5d8\uc7a5", "coordinates": [127.05997, 37.65745], "color": [127, 161, 171]}, {"name": "\uc0c1\uacc4\uc8fc\uacf57\ub2e8\uc9c0", "coordinates": [127.05911, 37.66037], "color": [127, 161, 171]}, {"name": "\uc0c1\uacc4\uc8fc\uacf57\ub2e8\uc9c0.\uad11\ub9bc\uad50\ud68c\uc55e", "coordinates": [127.06278, 37.6605], "color": [127, 161, 171]}, {"name": "7\ub2e8\uc9c0\uc601\uc5c5\uc18c", "coordinates": [127.06411, 37.65964], "color": [127, 161, 171]}, {"name": "\ub300\uc6d0\uc5ec\uac1d", "coordinates": [127.04356, 37.7532], "color": [1, 148, 92]}, {"name": "\uac00\uc7ac\uc6b8\uad50\ucc28\ub85c.\uc77c\uc2e0\uac74\uc601\ud734\uba3c\ube4c\uc544 ", "coordinates": [127.04414, 37.75141], "color": [1, 148, 92]}, {"name": "\uac00\ub2a5\uc5ed.\uc131\ubca0\ub4dc\ub85c\ubcd1\uc6d0", "coordinates": [127.04533, 37.74763], "color": [1, 148, 92]}, {"name": "\uacbd\uae30\ubd81\ubd80\ubcf4\ud6c8\uc9c0\uccad", "coordinates": [127.04592, 37.74545], "color": [1, 148, 92]}, {"name": "\uc758\uc815\ubd80\uacbd\ucc30\uc11c\uc55e", "coordinates": [127.04671, 37.74242], "color": [1, 148, 92]}, {"name": "\uc758\uc815\ubd80\uc5ed.\ud765\uc120\uc9c0\ud558\ub3c4\uc785\uad6c", "coordinates": [127.04702, 37.74119], "color": [1, 148, 92]}, {"name": "\uc758\uc815\ubd803\ub3d9\uc6b0\uccb4\uad6d.\uacbd\uae30\ub3c4\ubd81\ubd80\uc790\uce58", "coordinates": [127.0478, 37.73444], "color": [1, 148, 92]}, {"name": "\uad6c\uc758\uc815\ubd803\ub3d9\uc8fc\ubbfc\uc13c\ud130\uc785\uad6c", "coordinates": [127.04792, 37.73122], "color": [1, 148, 92]}, {"name": "\uc758\uc815\ubd80\uad50\uc55e", "coordinates": [127.04804, 37.72832], "color": [1, 148, 92]}, {"name": "\ud68c\ub8e1\uc5ed", "coordinates": [127.04804, 37.72365], "color": [1, 148, 92]}, {"name": "\ud638\uc6d0\ub3d9.\ud55c\uc8fc3.4\ucc28\uc544\ud30c\ud2b8", "coordinates": [127.04747, 37.72095], "color": [1, 148, 92]}, {"name": "\uc790\ub3d9\ucc28\uac80\uc0ac\uc18c.\ud55c\uc8fc\uc544\ud30c\ud2b8", "coordinates": [127.0472, 37.71863], "color": [1, 148, 92]}, {"name": "\ud68c\ub8e1\uc911\ud559\uad50", "coordinates": [127.04715, 37.7165], "color": [1, 148, 92]}, {"name": "\uc548\ub9d0.\ubcd1\ubb34\uccad.\ud638\uc6d0\uc608\ube44\uad70\ud6c8\ub828\uc7a5", "coordinates": [127.04729, 37.71274], "color": [1, 148, 92]}, {"name": "\ub9dd\uc6d4\uc0ac\uc5ed3\ubc88\ucd9c\uad6c", "coordinates": [127.04771, 37.71039], "color": [1, 148, 92]}, {"name": "\uc7a5\uc218\uc6d0.\uc2e0\ud55c\ub300\ud559\uad50", "coordinates": [127.04805, 37.70788], "color": [1, 148, 92]}, {"name": "\ud638\uc6d0\uace0\uad50.\ud638\uc554\ucd08\uad50", "coordinates": [127.04797, 37.70524], "color": [1, 148, 92]}, {"name": "\ub86f\ub370.\uc2e0\ub3c4\uc544\ud30c\ud2b8", "coordinates": [127.04749, 37.70247], "color": [1, 148, 92]}, {"name": "\ub2e4\ub77d\uc6d0.\uc11c\uc6b8\ub3c4\uc194\ud559\uad50\uc55e", "coordinates": [127.04491, 37.69527], "color": [1, 148, 92]}, {"name": "\ub3c4\ubd09\uc0b0\uc5ed", "coordinates": [127.04543, 37.68919], "color": [1, 148, 92]}, {"name": "\ub3c4\ubd09\ud55c\uc2e0\uc544\ud30c\ud2b8", "coordinates": [127.04595, 37.68405], "color": [1, 148, 92]}, {"name": "\uc11c\uc6b8\ubd81\ubd80\uc9c0\ubc29\ubc95\uc6d0.\uac80\ucc30\uccad.\ub3c4\ubd09\uc5ed\uc131\ud669\ub2f9", "coordinates": [127.04492, 37.67777], "color": [1, 148, 92]}, {"name": "\uc2e0\ub3c4\ubd09\uc0ac\uac70\ub9ac", "coordinates": [127.04415, 37.67329], "color": [1, 148, 92]}, {"name": "\uc2e0\ub3c4\ubd09\uc2dc\uc7a5.\ub3c4\ubd09\uad6c\uccad.\ubc29\ud559\ubd81\ubd80\uc5ed", "coordinates": [127.04358, 37.67], "color": [1, 148, 92]}, {"name": "\ub3c4\ubd09\uc18c\ubc29\uc11c.\ubc29\ud559\ub0a8\ubd80\uc5ed", "coordinates": [127.04298, 37.66633], "color": [1, 148, 92]}, {"name": "\ub3c4\ubd09\ubcf4\uac74\uc18c", "coordinates": [127.04076, 37.65894], "color": [1, 148, 92]}, {"name": "\ub3c4\ubd09\uad6c\ubbfc\ud68c\uad00.\ub3c4\ubd09\ubb38\ud654\uc6d0", "coordinates": [127.03817, 37.65456], "color": [1, 148, 92]}, {"name": "\uc30d\ubb38\uc5ed", "coordinates": [127.03477, 37.64882], "color": [1, 148, 92]}, {"name": "\uc6b0\uc7741\uad50\uc55e", "coordinates": [127.03265, 37.64529], "color": [1, 148, 92]}, {"name": "\uc218\uc7203\ub3d9\uc6b0\uccb4\uad6d", "coordinates": [127.02904, 37.64124], "color": [1, 148, 92]}, {"name": "\uc218\uc720(\uac15\ubd81\uad6c\uccad)\uc5ed", "coordinates": [127.0261, 37.63848], "color": [1, 148, 92]}, {"name": "\uc218\uc720\uc5ed", "coordinates": [127.02412, 37.63666], "color": [1, 148, 92]}, {"name": "\uc218\uc720\uc2dc\uc7a5.\uc131\uc2e0\uc5ec\ub300\ubbf8\uc544\ucea0\ud37c\uc2a4\uc55e", "coordinates": [127.02417, 37.63123], "color": [1, 148, 92]}, {"name": "\ubbf8\uc544\uc5ed.\uc2e0\uc77c\uc911\uace0", "coordinates": [127.02665, 37.62487], "color": [1, 148, 92]}, {"name": "\ub3c4\ubd09\uc138\ubb34\uc11c.\uc131\ubd81\uc2dc\uc7a5", "coordinates": [127.02872, 37.61971], "color": [1, 148, 92]}, {"name": "\ubbf8\uc544\uc0ac\uac70\ub9ac\uc5ed", "coordinates": [127.02993, 37.61376], "color": [1, 148, 92]}, {"name": "\uc6d4\uace1\ub274\ud0c0\uc6b4", "coordinates": [127.02821, 37.60691], "color": [1, 148, 92]}, {"name": "\uae38\uc74c\ub274\ud0c0\uc6b4", "coordinates": [127.02417, 37.60363], "color": [1, 148, 92]}, {"name": "\ubbf8\uc544\ub9ac\uace0\uac1c.\ubbf8\uc544\ub9ac\uc608\uc220\uadf9\uc7a5", "coordinates": [127.02171, 37.59881], "color": [1, 148, 92]}, {"name": "\ub3c8\uc554\uc0ac\uac70\ub9ac.\uc131\uc2e0\uc5ec\ub300\uc785\uad6c", "coordinates": [127.01813, 37.59374], "color": [1, 148, 92]}, {"name": "\uc0bc\uc120\uad50.\ud55c\uc131\ub300\ud559\uad50", "coordinates": [127.00923, 37.58985], "color": [1, 148, 92]}, {"name": "\ud61c\ud654\ub3d9\ub85c\ud130\ub9ac.\uc5ec\uc6b4\ud615\ud65c\ub3d9\ud130", "coordinates": [127.00174, 37.58624], "color": [1, 148, 92]}, {"name": "\uba85\ub95c3\uac00.\uc131\ub300\uc785\uad6c", "coordinates": [126.99834, 37.58267], "color": [1, 148, 92]}, {"name": "\ucc3d\uacbd\uad81.\uc11c\uc6b8\ub300\ud559\uad50\ubcd1\uc6d0", "coordinates": [126.99657, 37.57918], "color": [1, 148, 92]}, {"name": "\uc6d0\ub0a8\ub3d9", "coordinates": [126.99734, 37.57453], "color": [1, 148, 92]}, {"name": "\uc885\ub85c5\uac00.\uad11\uc7a5\uc2dc\uc7a5", "coordinates": [126.99885, 37.57076], "color": [1, 148, 92]}, {"name": "\uc885\ub85c5\uac00.\ud6a8\uc81c\ucd08\ub4f1\ud559\uad50", "coordinates": [127.00214, 37.57288], "color": [1, 148, 92]}, {"name": "\uc885\ub85c5\uac00.\ud6a8\uc81c\ub3d9.\uae40\uc0c1\uc625\uc758\uac70\ud130", "coordinates": [127.00223, 37.5745], "color": [1, 148, 92]}, {"name": "\ubc29\uc1a1\ud1b5\uc2e0\ub300.\uc774\ud654\uc7a5", "coordinates": [127.00244, 37.57804], "color": [1, 148, 92]}, {"name": "\ud61c\ud654\uc5ed.\ub9c8\ub85c\ub2c8\uc5d0\uacf5\uc6d0", "coordinates": [127.00228, 37.58112], "color": [1, 148, 92]}, {"name": "\ud61c\ud654\uc5ed.\ub3d9\uc131\uc911\uace0(\uc7a5\uba74\ucd1d\ub9ac\uac00\uc625)", "coordinates": [127.00172, 37.58457], "color": [1, 148, 92]}, {"name": "\uc0bc\uc120\uad50.\ud55c\uc131\ub300\ud559\uad50.\uc870\uc18c\uc559\ud65c\ub3d9\ud130", "coordinates": [127.00837, 37.58931], "color": [1, 148, 92]}, {"name": "\ub3c8\uc554\uc0ac\uac70\ub9ac.\uc131\uc2e0\uc5ec\ub300\uc785\uad6c", "coordinates": [127.01784, 37.59331], "color": [1, 148, 92]}, {"name": "\ubbf8\uc544\ub9ac\uace0\uac1c.\ubbf8\uc544\ub9ac\uc608\uc220\uadf9\uc7a5", "coordinates": [127.02182, 37.59792], "color": [1, 148, 92]}, {"name": "\uae38\uc74c\ub274\ud0c0\uc6b4", "coordinates": [127.02369, 37.60318], "color": [1, 148, 92]}, {"name": "\uc6d4\uace1\ub274\ud0c0\uc6b4", "coordinates": [127.0274, 37.60598], "color": [1, 148, 92]}, {"name": "\ubbf8\uc544\uc0ac\uac70\ub9ac\uc5ed", "coordinates": [127.03021, 37.61289], "color": [1, 148, 92]}, {"name": "\ub3c4\ubd09\uc138\ubb34\uc11c.\uc131\ubd81\uc2dc\uc7a5", "coordinates": [127.02925, 37.61884], "color": [1, 148, 92]}, {"name": "\ubbf8\uc544\uc5ed.\uc2e0\uc77c\uc911\uace0", "coordinates": [127.02714, 37.62411], "color": [1, 148, 92]}, {"name": "\uc218\uc720\uc2dc\uc7a5.\uc131\uc2e0\uc5ec\ub300\ubbf8\uc544\ucea0\ud37c\uc2a4\uc55e", "coordinates": [127.02457, 37.63053], "color": [1, 148, 92]}, {"name": "\uc218\uc720\uc5ed.\uac15\ubd81\uad6c\uccad", "coordinates": [127.02523, 37.63749], "color": [1, 148, 92]}, {"name": "\uc218\uc7203\ub3d9\uc6b0\uccb4\uad6d", "coordinates": [127.02867, 37.64067], "color": [1, 148, 92]}, {"name": "\uc6b0\uc7741\uad50\uc55e", "coordinates": [127.03242, 37.64465], "color": [1, 148, 92]}, {"name": "\uc30d\ubb38\uc5ed", "coordinates": [127.03446, 37.64807], "color": [1, 148, 92]}, {"name": "\ub3c4\ubd09\uad6c\ubbfc\ud68c\uad00.\ub3c4\ubd09\ubb38\ud654\uc6d0", "coordinates": [127.03798, 37.65397], "color": [1, 148, 92]}, {"name": "\ub3c4\ubd09\ubcf4\uac74\uc18c.\ubd81\ud55c\uc0b0\uc544\uc774\ud30c\ud06c\uc544\ud30c\ud2b8", "coordinates": [127.04052, 37.65821], "color": [1, 148, 92]}, {"name": "\ub3c4\ubd09\uc18c\ubc29\uc11c.\ubc29\ud559\ub0a8\ubd80\uc5ed", "coordinates": [127.04305, 37.66568], "color": [1, 148, 92]}, {"name": "\uc2e0\ub3c4\ubd09\uc2dc\uc7a5.\ub3c4\ubd09\uad6c\uccad.\ubc29\ud559\ubd81\ubd80\uc5ed", "coordinates": [127.04376, 37.6692], "color": [1, 148, 92]}, {"name": "\uc2e0\ub3c4\ubd09\uc0ac\uac70\ub9ac", "coordinates": [127.04433, 37.67275], "color": [1, 148, 92]}, {"name": "\uc11c\uc6b8\ubd81\ubd80\uc9c0\ubc29\ubc95\uc6d0.\uac80\ucc30\uccad.\ub3c4\ubd09\uc5ed\uc131\ud669\ub2f9", "coordinates": [127.0451, 37.67726], "color": [1, 148, 92]}, {"name": "\ub3c4\ubd09\ud55c\uc2e0\uc544\ud30c\ud2b8", "coordinates": [127.04607, 37.68267], "color": [1, 148, 92]}, {"name": "\ub3c4\ubd09\uc0b0\uc5ed", "coordinates": [127.04581, 37.68857], "color": [1, 148, 92]}, {"name": "\ub2e4\ub77d\uc6d0.\uc11c\uc6b8\ub3c4\uc194\ud559\uad50\uc55e", "coordinates": [127.04519, 37.69474], "color": [1, 148, 92]}, {"name": "\ub86f\ub370.\uc2e0\ub3c4\uc544\ud30c\ud2b8", "coordinates": [127.04782, 37.7029], "color": [1, 148, 92]}, {"name": "\ud638\uc6d0\uace0\uad50.\ud638\uc554\ucd08\uad50", "coordinates": [127.04828, 37.70544], "color": [1, 148, 92]}, {"name": "\uc7a5\uc218\uc6d0.\uc2e0\ud55c\ub300\ud559\uad50", "coordinates": [127.04837, 37.70765], "color": [1, 148, 92]}, {"name": "\uadf8\ub791\ubca0\ub974\uc544\ud30c\ud2b8", "coordinates": [127.04796, 37.71045], "color": [1, 148, 92]}, {"name": "\uc548\ub9d0.\ubcd1\ubb34\uccad.\ud638\uc6d0\uc608\ube44\uad70\ud6c8\ub828\uc7a5\uc55e", "coordinates": [127.04741, 37.71384], "color": [1, 148, 92]}, {"name": "\ud68c\ub8e1\uc911\ud559\uad50", "coordinates": [127.04743, 37.71667], "color": [1, 148, 92]}, {"name": "\uc790\ub3d9\ucc28\uac80\uc0ac\uc18c.\ud55c\uc8fc\uc544\ud30c\ud2b8", "coordinates": [127.04749, 37.7186], "color": [1, 148, 92]}, {"name": "\ud638\uc6d0\ub3d9.\ud55c\uc8fc3.4\ucc28\uc544\ud30c\ud2b8", "coordinates": [127.04765, 37.72038], "color": [1, 148, 92]}, {"name": "\ud68c\ub8e1\uc5ed", "coordinates": [127.04831, 37.72358], "color": [1, 148, 92]}, {"name": "\uc758\uc815\ubd80\uad50\uc55e", "coordinates": [127.04825, 37.72858], "color": [1, 148, 92]}, {"name": "\uad6c\uc758\uc815\ubd803\ub3d9\uc8fc\ubbfc\uc13c\ud130\uc785\uad6c", "coordinates": [127.04815, 37.73139], "color": [1, 148, 92]}, {"name": "\uc758\uc815\ubd803\ub3d9\uc6b0\uccb4\uad6d.\uacbd\uae30\ub3c4\ubd81\ubd80\uc790\uce58", "coordinates": [127.04808, 37.73469], "color": [1, 148, 92]}, {"name": "\uc758\uc815\ubd80\uc5ed.\ub18d\ud611\uc55e", "coordinates": [127.04724, 37.74148], "color": [1, 148, 92]}, {"name": "\uc911\uc559\ucd08\ub4f1\ud559\uad50", "coordinates": [127.0463, 37.7449], "color": [1, 148, 92]}, {"name": "\uac00\ub2a5\uc5ed.\uc131\ubca0\ub4dc\ub85c\ubcd1\uc6d0", "coordinates": [127.04548, 37.74811], "color": [1, 148, 92]}, {"name": "\uac00\uc7ac\uc6b8\uad50\ucc28\ub85c.\uc77c\uc2e0\uac74\uc601\ud734\uba3c\ube4c\uc544 ", "coordinates": [127.04434, 37.75161], "color": [1, 148, 92]}, {"name": "\ub300\uc6d0\uc5ec\uac1d", "coordinates": [127.04371, 37.75361], "color": [1, 148, 92]}, {"name": "\ubbfc\ub77d\uc5d8\ub808\ud2b819\ub2e8\uc9c0\ud6c4\ubb38", "coordinates": [127.11803, 37.74964], "color": [117, 141, 44]}, {"name": "\ubb34\uc9c0\ub7ad\uc774\uc57d\uc218\ud130.\ucf54\uc2a4\ud2b8\ucf54", "coordinates": [127.11794, 37.75092], "color": [117, 141, 44]}, {"name": "\uc6a9\uc554\ub9c8\uc74416\ub2e8\uc9c0.\ubbfc\ub77d\ub77c\ub514\uc5b8\ud2b8\uce90 ", "coordinates": [127.11569, 37.7555], "color": [117, 141, 44]}, {"name": "\uc591\uc9c0\ub9c8\uc744\ud6c4\ubb38\uc785\uad6c", "coordinates": [127.11323, 37.75484], "color": [117, 141, 44]}, {"name": "\uc1a1\uc591\ucd08\ub4f1\ud559\uad50.\uc1a1\uc0b03\ub3d9\ud589\uc815\ubcf5\uc9c0\uc13c", "coordinates": [127.1131, 37.75308], "color": [117, 141, 44]}, {"name": "\uc591\uc9c0\ub9c8\uc7448\ub2e8\uc9c0.\ubbfc\ub77d\ud478\ub974\uc9c0\uc624\uc544\ud30c", "coordinates": [127.11059, 37.75234], "color": [117, 141, 44]}, {"name": "\uc1a1\uc591\uace0\ub4f1\ud559\uad50", "coordinates": [127.10791, 37.75296], "color": [117, 141, 44]}, {"name": "\uc1a1\uc591\uc911\ud559\uad50.\ubc18\ub3c4\uc720\ubcf4\ub77c\uc544\uc774\ube44\ud30c ", "coordinates": [127.10392, 37.75236], "color": [117, 141, 44]}, {"name": "\uc758\uc815\ubd80\ubbfc\ub77dBRT\uc815\ub958\uc18c\uc55e", "coordinates": [127.10184, 37.7507], "color": [117, 141, 44]}, {"name": "\uae08\uac15\ud39c\ud14c\ub9ac\uc6c0.\ub2e8\ub3c5\uc8fc\ud0dd\ub2e8\uc9c0", "coordinates": [127.09731, 37.74902], "color": [117, 141, 44]}, {"name": "\ub099\uc591\ubb3c\uc0ac\ub791\uacf5\uc6d0\uc55e", "coordinates": [127.09385, 37.74695], "color": [117, 141, 44]}, {"name": "\uc1a1\ud604\uace0\ub4f1\ud559\uad50", "coordinates": [127.09134, 37.74244], "color": [117, 141, 44]}, {"name": "\uc0b0\ub4e4\ub9c8\uc7441\ub2e8\uc9c0\ub0a8\ubb38", "coordinates": [127.09226, 37.74075], "color": [117, 141, 44]}, {"name": "\ubbfc\ub77d\uc8fc\uacf52\ub2e8\uc9c0", "coordinates": [127.09613, 37.73895], "color": [117, 141, 44]}, {"name": "\uccad\uad6c\uc544\ud30c\ud2b8", "coordinates": [127.09578, 37.73745], "color": [117, 141, 44]}, {"name": "\uc1a1\uc0b0\uc8fc\uacf54\ub2e8\uc9c0", "coordinates": [127.09041, 37.73306], "color": [117, 141, 44]}, {"name": "\uc1a1\uc0b01\ub3d9\uc8fc\ubbfc\uc13c\ud130", "coordinates": [127.0878, 37.73128], "color": [117, 141, 44]}, {"name": "\ub9cc\uac00\ub300.\uc194\ubafc\uc911\ud559\uad50", "coordinates": [127.08473, 37.73082], "color": [117, 141, 44]}, {"name": "\uad6c306\ubcf4\ucda9\ub300", "coordinates": [127.08022, 37.73365], "color": [117, 141, 44]}, {"name": "\uc138\uc544.\ubcf4\uad11.\uac74\uc601\uc544\ud30c\ud2b8\uc55e", "coordinates": [127.07716, 37.73506], "color": [117, 141, 44]}, {"name": "\ub3d9\uad6d\ub300\uc0ac\ubc94\ubd80\uc18d\uc601\uc11d\uace0\ub4f1\ud559\uad50", "coordinates": [127.07447, 37.73566], "color": [117, 141, 44]}, {"name": "\uc2e0\uace1\ud604\ub300\uc544\ud30c\ud2b8", "coordinates": [127.07066, 37.73712], "color": [117, 141, 44]}, {"name": "e\ud3b8\ud55c\uc138\uc0c1\uc2e0\uace1\ud30c\ud06c\ube44\uc2a4\ud0c0", "coordinates": [127.06807, 37.73733], "color": [117, 141, 44]}, {"name": "\uc758\uc815\ubd80\ucd08\uad50.\uc2e0\uace1\ub3d9\uc2e0\uc77c\uc544\ud30c\ud2b8", "coordinates": [127.06234, 37.7359], "color": [117, 141, 44]}, {"name": "\uc2e0\uace1\uc9c0\ud558\ucc28\ub3c4", "coordinates": [127.05801, 37.73484], "color": [117, 141, 44]}, {"name": "\uc2e0\uace1\uc8fc\ud0dd.\uc758\uc554\uad50\ud68c", "coordinates": [127.05861, 37.73212], "color": [117, 141, 44]}, {"name": "\uc11c\ud574.\ud55c\uc77c.\uc0bc\uc775\uc544\ud30c\ud2b8", "coordinates": [127.05893, 37.73059], "color": [117, 141, 44]}, {"name": "\uc7a5\uc554\uc8fc\uacf55\ub2e8\uc9c0\uc55e", "coordinates": [127.0595, 37.7279], "color": [117, 141, 44]}, {"name": "\uc7a5\uc554\uc8fc\uacf52\ub2e8\uc9c0.\uc7a5\uc554\uc6b0\uc131\uc544\ud30c\ud2b8", "coordinates": [127.06024, 37.72422], "color": [117, 141, 44]}, {"name": "\uc30d\uc554\uc0ac\uc785\uad6c", "coordinates": [127.05754, 37.7066], "color": [117, 141, 44]}, {"name": "\uc544\uc77c\ub79c\ub4dc\uce90\uc2ac", "coordinates": [127.05426, 37.70582], "color": [117, 141, 44]}, {"name": "\ub3c4\ubd09\ucc28\ub7c9\uae30\uc9c0\uc55e", "coordinates": [127.05163, 37.70283], "color": [117, 141, 44]}, {"name": "\ub2e4\ub77d\uc6d0.\uc11c\uc6b8\ub3c4\uc194\ud559\uad50\uc55e", "coordinates": [127.04491, 37.69527], "color": [117, 141, 44]}, {"name": "\ub3c4\ubd09\uc0b0\uc5ed", "coordinates": [127.04543, 37.68919], "color": [117, 141, 44]}, {"name": "\ub3c4\ubd09\ud55c\uc2e0\uc544\ud30c\ud2b8", "coordinates": [127.04595, 37.68405], "color": [117, 141, 44]}, {"name": "\uc11c\uc6b8\ubd81\ubd80\uc9c0\ubc29\ubc95\uc6d0.\uac80\ucc30\uccad.\ub3c4\ubd09\uc5ed\uc131\ud669\ub2f9", "coordinates": [127.04492, 37.67777], "color": [117, 141, 44]}, {"name": "\uc2e0\ub3c4\ubd09\uc0ac\uac70\ub9ac", "coordinates": [127.04415, 37.67329], "color": [117, 141, 44]}, {"name": "\uc2e0\ub3c4\ubd09\uc2dc\uc7a5.\ub3c4\ubd09\uad6c\uccad.\ubc29\ud559\ubd81\ubd80\uc5ed", "coordinates": [127.04358, 37.67], "color": [117, 141, 44]}, {"name": "\ub3c4\ubd09\uc18c\ubc29\uc11c.\ubc29\ud559\ub0a8\ubd80\uc5ed", "coordinates": [127.04298, 37.66633], "color": [117, 141, 44]}, {"name": "\ub3c4\ubd09\ubcf4\uac74\uc18c", "coordinates": [127.04076, 37.65894], "color": [117, 141, 44]}, {"name": "\ub3c4\ubd09\uad6c\ubbfc\ud68c\uad00.\ub3c4\ubd09\ubb38\ud654\uc6d0", "coordinates": [127.03817, 37.65456], "color": [117, 141, 44]}, {"name": "\uc30d\ubb38\uc5ed", "coordinates": [127.03477, 37.64882], "color": [117, 141, 44]}, {"name": "\uc6b0\uc7741\uad50\uc55e", "coordinates": [127.03265, 37.64529], "color": [117, 141, 44]}, {"name": "\uc218\uc7203\ub3d9\uc6b0\uccb4\uad6d", "coordinates": [127.02904, 37.64124], "color": [117, 141, 44]}, {"name": "\uc218\uc720(\uac15\ubd81\uad6c\uccad)\uc5ed", "coordinates": [127.0261, 37.63848], "color": [117, 141, 44]}, {"name": "\uc218\uc720\uc5ed", "coordinates": [127.02412, 37.63666], "color": [117, 141, 44]}, {"name": "\uc218\uc720\uc2dc\uc7a5.\uc131\uc2e0\uc5ec\ub300\ubbf8\uc544\ucea0\ud37c\uc2a4\uc55e", "coordinates": [127.02417, 37.63123], "color": [117, 141, 44]}, {"name": "\ubbf8\uc544\uc5ed.\uc2e0\uc77c\uc911\uace0", "coordinates": [127.02665, 37.62487], "color": [117, 141, 44]}, {"name": "\ub3c4\ubd09\uc138\ubb34\uc11c.\uc131\ubd81\uc2dc\uc7a5", "coordinates": [127.02872, 37.61971], "color": [117, 141, 44]}, {"name": "\ubbf8\uc544\uc0ac\uac70\ub9ac\uc5ed", "coordinates": [127.02993, 37.61376], "color": [117, 141, 44]}, {"name": "\uc6d4\uace1\ub274\ud0c0\uc6b4", "coordinates": [127.02821, 37.60691], "color": [117, 141, 44]}, {"name": "\uae38\uc74c\ub274\ud0c0\uc6b4", "coordinates": [127.02417, 37.60363], "color": [117, 141, 44]}, {"name": "\ubbf8\uc544\ub9ac\uace0\uac1c.\ubbf8\uc544\ub9ac\uc608\uc220\uadf9\uc7a5", "coordinates": [127.02171, 37.59881], "color": [117, 141, 44]}, {"name": "\ub3c8\uc554\uc0ac\uac70\ub9ac.\uc131\uc2e0\uc5ec\ub300\uc785\uad6c", "coordinates": [127.01813, 37.59374], "color": [117, 141, 44]}, {"name": "\uc0bc\uc120\uad50.\ud55c\uc131\ub300\ud559\uad50", "coordinates": [127.00923, 37.58985], "color": [117, 141, 44]}, {"name": "\ud61c\ud654\ub3d9\ub85c\ud130\ub9ac.\uc5ec\uc6b4\ud615\ud65c\ub3d9\ud130", "coordinates": [127.00174, 37.58624], "color": [117, 141, 44]}, {"name": "\uba85\ub95c3\uac00.\uc131\ub300\uc785\uad6c", "coordinates": [126.99834, 37.58267], "color": [117, 141, 44]}, {"name": "\ucc3d\uacbd\uad81.\uc11c\uc6b8\ub300\ud559\uad50\ubcd1\uc6d0", "coordinates": [126.99657, 37.57918], "color": [117, 141, 44]}, {"name": "\ud604\ub300\uadf8\ub8f9\ube4c\ub529", "coordinates": [127.00053, 37.57587], "color": [117, 141, 44]}, {"name": "\uc774\ud654\ub3d9(\uc774\ud654\uc7a5)", "coordinates": [127.00327, 37.57594], "color": [117, 141, 44]}, {"name": "\ucda9\uc2e0\ub3d9", "coordinates": [127.00628, 37.57402], "color": [117, 141, 44]}, {"name": "\ub3d9\ub300\ubb38", "coordinates": [127.00841, 37.57173], "color": [117, 141, 44]}, {"name": "\uc885\ub85c5\uac00.\ud6a8\uc81c\ucd08\ub4f1\ud559\uad50", "coordinates": [127.00214, 37.57288], "color": [117, 141, 44]}, {"name": "\uc885\ub85c5\uac00.\ud6a8\uc81c\ub3d9.\uae40\uc0c1\uc625\uc758\uac70\ud130", "coordinates": [127.00223, 37.5745], "color": [117, 141, 44]}, {"name": "\ubc29\uc1a1\ud1b5\uc2e0\ub300.\uc774\ud654\uc7a5", "coordinates": [127.00244, 37.57804], "color": [117, 141, 44]}, {"name": "\ud61c\ud654\uc5ed.\ub9c8\ub85c\ub2c8\uc5d0\uacf5\uc6d0", "coordinates": [127.00228, 37.58112], "color": [117, 141, 44]}, {"name": "\ud61c\ud654\uc5ed.\ub3d9\uc131\uc911\uace0(\uc7a5\uba74\ucd1d\ub9ac\uac00\uc625)", "coordinates": [127.00172, 37.58457], "color": [117, 141, 44]}, {"name": "\uc0bc\uc120\uad50.\ud55c\uc131\ub300\ud559\uad50.\uc870\uc18c\uc559\ud65c\ub3d9\ud130", "coordinates": [127.00837, 37.58931], "color": [117, 141, 44]}, {"name": "\ub3c8\uc554\uc0ac\uac70\ub9ac.\uc131\uc2e0\uc5ec\ub300\uc785\uad6c", "coordinates": [127.01784, 37.59331], "color": [117, 141, 44]}, {"name": "\ubbf8\uc544\ub9ac\uace0\uac1c.\ubbf8\uc544\ub9ac\uc608\uc220\uadf9\uc7a5", "coordinates": [127.02182, 37.59792], "color": [117, 141, 44]}, {"name": "\uae38\uc74c\ub274\ud0c0\uc6b4", "coordinates": [127.02369, 37.60318], "color": [117, 141, 44]}, {"name": "\uc6d4\uace1\ub274\ud0c0\uc6b4", "coordinates": [127.0274, 37.60598], "color": [117, 141, 44]}, {"name": "\ubbf8\uc544\uc0ac\uac70\ub9ac\uc5ed", "coordinates": [127.03021, 37.61289], "color": [117, 141, 44]}, {"name": "\ub3c4\ubd09\uc138\ubb34\uc11c.\uc131\ubd81\uc2dc\uc7a5", "coordinates": [127.02925, 37.61884], "color": [117, 141, 44]}, {"name": "\ubbf8\uc544\uc5ed.\uc2e0\uc77c\uc911\uace0", "coordinates": [127.02714, 37.62411], "color": [117, 141, 44]}, {"name": "\uc218\uc720\uc2dc\uc7a5.\uc131\uc2e0\uc5ec\ub300\ubbf8\uc544\ucea0\ud37c\uc2a4\uc55e", "coordinates": [127.02457, 37.63053], "color": [117, 141, 44]}, {"name": "\uc218\uc720\uc5ed.\uac15\ubd81\uad6c\uccad", "coordinates": [127.02523, 37.63749], "color": [117, 141, 44]}, {"name": "\uc218\uc7203\ub3d9\uc6b0\uccb4\uad6d", "coordinates": [127.02867, 37.64067], "color": [117, 141, 44]}, {"name": "\uc6b0\uc7741\uad50\uc55e", "coordinates": [127.03242, 37.64465], "color": [117, 141, 44]}, {"name": "\uc30d\ubb38\uc5ed", "coordinates": [127.03446, 37.64807], "color": [117, 141, 44]}, {"name": "\ub3c4\ubd09\uad6c\ubbfc\ud68c\uad00.\ub3c4\ubd09\ubb38\ud654\uc6d0", "coordinates": [127.03798, 37.65397], "color": [117, 141, 44]}, {"name": "\ub3c4\ubd09\ubcf4\uac74\uc18c.\ubd81\ud55c\uc0b0\uc544\uc774\ud30c\ud06c\uc544\ud30c\ud2b8", "coordinates": [127.04052, 37.65821], "color": [117, 141, 44]}, {"name": "\ub3c4\ubd09\uc18c\ubc29\uc11c.\ubc29\ud559\ub0a8\ubd80\uc5ed", "coordinates": [127.04305, 37.66568], "color": [117, 141, 44]}, {"name": "\uc2e0\ub3c4\ubd09\uc2dc\uc7a5.\ub3c4\ubd09\uad6c\uccad.\ubc29\ud559\ubd81\ubd80\uc5ed", "coordinates": [127.04376, 37.6692], "color": [117, 141, 44]}, {"name": "\uc2e0\ub3c4\ubd09\uc0ac\uac70\ub9ac", "coordinates": [127.04433, 37.67275], "color": [117, 141, 44]}, {"name": "\uc11c\uc6b8\ubd81\ubd80\uc9c0\ubc29\ubc95\uc6d0.\uac80\ucc30\uccad.\ub3c4\ubd09\uc5ed\uc131\ud669\ub2f9", "coordinates": [127.0451, 37.67726], "color": [117, 141, 44]}, {"name": "\ub3c4\ubd09\ud55c\uc2e0\uc544\ud30c\ud2b8", "coordinates": [127.04607, 37.68267], "color": [117, 141, 44]}, {"name": "\ub3c4\ubd09\uc0b0\uc5ed", "coordinates": [127.04581, 37.68857], "color": [117, 141, 44]}, {"name": "\ub2e4\ub77d\uc6d0.\uc11c\uc6b8\ub3c4\uc194\ud559\uad50\uc55e", "coordinates": [127.04519, 37.69474], "color": [117, 141, 44]}, {"name": "\ub3c4\ubd09\ucc28\ub7c9\uae30\uc9c0\uc55e", "coordinates": [127.05172, 37.70261], "color": [117, 141, 44]}, {"name": "\uc544\uc77c\ub79c\ub4dc\uce90\uc2ac", "coordinates": [127.05287, 37.70421], "color": [117, 141, 44]}, {"name": "\uc30d\uc554\uc0ac\uc785\uad6c", "coordinates": [127.05739, 37.70554], "color": [117, 141, 44]}, {"name": "\uc7a5\uc554\uc6b0\uc131\uc544\ud30c\ud2b8.\uc7a5\uc554\uc8fc\uacf52\ub2e8\uc9c0", "coordinates": [127.06067, 37.72424], "color": [117, 141, 44]}, {"name": "\uc7a5\uc554\uc8fc\uacf55\ub2e8\uc9c0.\ud55c\uad6d.\ud48d\ub9bc\uc544\ud30c\ud2b8", "coordinates": [127.06003, 37.7274], "color": [117, 141, 44]}, {"name": "\uc11c\ud574\uc544\ud30c\ud2b8", "coordinates": [127.05938, 37.73033], "color": [117, 141, 44]}, {"name": "\uc2e0\uace1\uc8fc\ud0dd.\uc758\uc554\uad50\ud68c", "coordinates": [127.05885, 37.73286], "color": [117, 141, 44]}, {"name": "\uc2e0\uace1\uc9c0\ud558\ucc28\ub3c4", "coordinates": [127.05837, 37.73526], "color": [117, 141, 44]}, {"name": "\uc758\uc815\ubd80\ucd08\ub4f1\ud559\uad50", "coordinates": [127.06087, 37.73566], "color": [117, 141, 44]}, {"name": "\ud55c\uc77c\uc720\uc564\uc544\uc774\uc544\ud30c\ud2b8", "coordinates": [127.06236, 37.73566], "color": [117, 141, 44]}, {"name": "e\ud3b8\ud55c\uc138\uc0c1\uc2e0\uace1\ud30c\ud06c\ube44\uc2a4\ud0c0", "coordinates": [127.06773, 37.73701], "color": [117, 141, 44]}, {"name": "\uc2e0\uace1\ud604\ub300\uc544\ud30c\ud2b8", "coordinates": [127.07057, 37.73679], "color": [117, 141, 44]}, {"name": "\ub3d9\uad6d\ub300\uc0ac\ubc94\ubd80\uc18d\uc601\uc11d\uace0\ub4f1\ud559\uad50", "coordinates": [127.07512, 37.73527], "color": [117, 141, 44]}, {"name": "\uc138\uc544.\ubcf4\uad11.\uac74\uc601\uc544\ud30c\ud2b8\uc55e", "coordinates": [127.07676, 37.73486], "color": [117, 141, 44]}, {"name": "\uad6c306\ubcf4\ucda9\ub300", "coordinates": [127.07954, 37.7336], "color": [117, 141, 44]}, {"name": "\uc194\ubafc\uc911\ud559\uad50.\ub9cc\uac00\ub300", "coordinates": [127.08333, 37.73126], "color": [117, 141, 44]}, {"name": "\uc1a1\uc0b01\ub3d9\uc8fc\ubbfc\uc13c\ud130", "coordinates": [127.089, 37.73151], "color": [117, 141, 44]}, {"name": "\uccad\uad6c\uc544\ud30c\ud2b8", "coordinates": [127.09529, 37.73669], "color": [117, 141, 44]}, {"name": "\ubbfc\ub77d\uc8fc\uacf52\ub2e8\uc9c0", "coordinates": [127.09614, 37.73923], "color": [117, 141, 44]}, {"name": "\uc0b0\ub4e4\ub9c8\uc7441\ub2e8\uc9c0\ub0a8\ubb38", "coordinates": [127.09256, 37.74087], "color": [117, 141, 44]}, {"name": "\uc1a1\ud604\uace0\ub4f1\ud559\uad50.\uc7a5\uc560\uc778\uc885\ud569\ubcf5\uc9c0\uad00", "coordinates": [127.09187, 37.74334], "color": [117, 141, 44]}, {"name": "\ub099\uc591\ubb3c\uc0ac\ub791\uacf5\uc6d0\uc55e", "coordinates": [127.09364, 37.74616], "color": [117, 141, 44]}, {"name": "\ubd80\uc6a9\ub9c8\uc7443\ub2e8\uc9c0.\ub2e8\ub3c5\uc8fc\ud0dd\ub2e8\uc9c0", "coordinates": [127.09896, 37.74925], "color": [117, 141, 44]}, {"name": "BRT.\ubc18\ub3c4\uc720\ubcf4\ub77c\uc544\uc774\ube44\ud30c\ud06c\ud6c4\ubb38", "coordinates": [127.10175, 37.75033], "color": [117, 141, 44]}, {"name": "\uc1a1\uc591\uc911\ud559\uad50.\ubc18\ub3c4\uc720\ubcf4\ub77c\uc544\uc774\ube44\ud30c ", "coordinates": [127.10409, 37.75209], "color": [117, 141, 44]}, {"name": "\uc1a1\uc591\uace0\ub4f1\ud559\uad50.\ud638\ubc18\ubca0\ub974\ub514\uc6c02\ucc28\uc544", "coordinates": [127.10768, 37.75286], "color": [117, 141, 44]}, {"name": "\uc591\uc9c0\ub9c8\uc7448\ub2e8\uc9c0.\ubbfc\ub77d\ud478\ub974\uc9c0\uc624\uc544\ud30c", "coordinates": [127.11015, 37.75209], "color": [117, 141, 44]}, {"name": "\uc1a1\uc591\ucd08.\ubbfc\ub77d\uc13c\ud2b8\ub7f417\ub2e8\uc9c0.\uc1a1\uc0b03 ", "coordinates": [127.11316, 37.75248], "color": [117, 141, 44]}, {"name": "\uc6a9\uc554\ub9c8\uc744\uc785\uad6c", "coordinates": [127.11367, 37.75405], "color": [117, 141, 44]}, {"name": "\ubbfc\ub77d\uc13c\ud2b8\ub7f4\uc544\ud30c\ud2b8.\uc6a9\uc554\ub9c8\uc74415\ub2e8 ", "coordinates": [127.11645, 37.7548], "color": [117, 141, 44]}, {"name": "\ubb34\uc9c0\ub7ad\uc774\uc57d\uc218\ud130.\ucf54\uc2a4\ud2b8\ucf54", "coordinates": [127.11762, 37.75131], "color": [117, 141, 44]}, {"name": "\ubbfc\ub77d\uc5d8\ub808\ud2b819\ub2e8\uc9c0\ud6c4\ubb38", "coordinates": [127.11769, 37.74963], "color": [117, 141, 44]}, {"name": "\uc601\uc2e0\uc5ec\uac1d\ucc28\uace0\uc9c0(\uc6b0\uc774\ub3d9\uc885\uc810)", "coordinates": [127.01197, 37.66283], "color": [199, 98, 255]}, {"name": "\uc6b0\uc774\ub3d9\ub3c4\uc120\uc0ac\uc785\uad6c.\ubd81\ud55c\uc0b0\uc6b0\uc774\uc5ed", "coordinates": [127.01282, 37.6625], "color": [199, 98, 255]}, {"name": "\uc6b0\uc774\ub3d9\uc131\uc6d0\uc544\ud30c\ud2b8", "coordinates": [127.01342, 37.66081], "color": [199, 98, 255]}, {"name": "\uc9c4\uc131\ube4c\ub77c\uc0ac\uac70\ub9ac", "coordinates": [127.01376, 37.65969], "color": [199, 98, 255]}, {"name": "\uc11c\ub77c\ubc8c\uc911\ud559\uad50.\uc6b0\uc774\ub3d9\ub300\uc6b0\uc544\ud30c\ud2b8", "coordinates": [127.01283, 37.65461], "color": [199, 98, 255]}, {"name": "\ub355\uc131\uc5ec\ub300\uc194\ubc2d\uadfc\ub9b0\uacf5\uc6d0", "coordinates": [127.01261, 37.65138], "color": [199, 98, 255]}, {"name": "\uad6d\ub9bd4.19\ubbfc\uc8fc\ubb18\uc9c0\uc785\uad6c\uc0ac\uac70\ub9ac", "coordinates": [127.01371, 37.64911], "color": [199, 98, 255]}, {"name": "\uc778\uc218\ub3d9\uc7a5\ubbf8\uc6d0", "coordinates": [127.01553, 37.64503], "color": [199, 98, 255]}, {"name": "\uac00\uc624\ub9ac\uc5ed", "coordinates": [127.01658, 37.6419], "color": [199, 98, 255]}, {"name": "\uc6b0\uc774\ucd08\ub4f1\ud559\uad50", "coordinates": [127.01711, 37.63651], "color": [199, 98, 255]}, {"name": "\ud654\uacc4\uc0ac\uc785\uad6c", "coordinates": [127.01747, 37.63334], "color": [199, 98, 255]}, {"name": "\ube68\ub798\uace8\uc785\uad6c", "coordinates": [127.01777, 37.62986], "color": [199, 98, 255]}, {"name": "\ub86f\ub370\ub9c8\ud2b8\uc0bc\uc591\uc810.\ub798\ubbf8\uc5481\ucc28\uc544\ud30c\ud2b8", "coordinates": [127.01822, 37.62529], "color": [199, 98, 255]}, {"name": "\uc0bc\uc591\ucd08\ub4f1\ud559\uad50", "coordinates": [127.01913, 37.62307], "color": [199, 98, 255]}, {"name": "\uac15\ubd81\uccad\uc18c\ub144\ubb38\ud654\uc815\ubcf4\ub3c4\uc11c\uad00\uc785\uad6c", "coordinates": [127.02025, 37.62165], "color": [199, 98, 255]}, {"name": "\uc0bc\uc591\ub3d9\uc0ac\uac70\ub9ac", "coordinates": [127.02131, 37.61809], "color": [199, 98, 255]}, {"name": "\uc1a1\ucc9c\ucd08\ub4f1\ud559\uad50.\ubbf8\uc544\ub274\ud0c0\uc6b4\uc785\uad6c", "coordinates": [127.02211, 37.61546], "color": [199, 98, 255]}, {"name": "\ubbf8\uc544\ucd08\uad50", "coordinates": [127.02204, 37.61153], "color": [199, 98, 255]}, {"name": "\uae38\uc74c\ub3d9\ub3d9\ubd80\uc544\ud30c\ud2b8", "coordinates": [127.02327, 37.60786], "color": [199, 98, 255]}, {"name": "\uae38\uc74c\ub274\ud0c0\uc6b4", "coordinates": [127.02417, 37.60363], "color": [199, 98, 255]}, {"name": "\ubbf8\uc544\ub9ac\uace0\uac1c.\ubbf8\uc544\ub9ac\uc608\uc220\uadf9\uc7a5", "coordinates": [127.02171, 37.59881], "color": [199, 98, 255]}, {"name": "\ub3c8\uc554\uc0ac\uac70\ub9ac.\uc131\uc2e0\uc5ec\ub300\uc785\uad6c", "coordinates": [127.01813, 37.59374], "color": [199, 98, 255]}, {"name": "\uc0bc\uc120\uad50.\ud55c\uc131\ub300\ud559\uad50", "coordinates": [127.00923, 37.58985], "color": [199, 98, 255]}, {"name": "\ud61c\ud654\uc5ed.\uc11c\uc6b8\uc5f0\uadf9\uc13c\ud130(\uc7a5\uba74\ucd1d\ub9ac\uac00\uc625)", "coordinates": [127.00133, 37.58402], "color": [199, 98, 255]}, {"name": "\ud61c\ud654\uc5ed.\uc11c\uc6b8\ub300\ubcd1\uc6d0\uc785\uad6c", "coordinates": [127.00194, 37.58106], "color": [199, 98, 255]}, {"name": "\ubc29\uc1a1\ud1b5\uc2e0\ub300.\uc774\ud654\uc7a5", "coordinates": [127.00199, 37.57813], "color": [199, 98, 255]}, {"name": "\uc774\ud654\ub3d9(\uc774\ud654\uc7a5)", "coordinates": [127.0007, 37.57612], "color": [199, 98, 255]}, {"name": "\ucc3d\ub355\uad81.\uc11c\uc6b8\ub3c8\ud654\ubb38\uad6d\uc545\ub2f9", "coordinates": [126.98854, 37.57754], "color": [199, 98, 255]}, {"name": "\uc548\uad6d\uc5ed.\uc885\ub85c\uacbd\ucc30\uc11c.\uc11c\uc6b8\uacf5\uc608\ubc15\ubb3c\uad00", "coordinates": [126.98477, 37.5764], "color": [199, 98, 255]}, {"name": "\uc870\uacc4\uc0ac", "coordinates": [126.98283, 37.57249], "color": [199, 98, 255]}, {"name": "\uc885\ub85c1\uac00", "coordinates": [126.98013, 37.57037], "color": [199, 98, 255]}, {"name": "KT\uad11\ud654\ubb38\uc9c0\uc0ac", "coordinates": [126.97733, 37.57223], "color": [199, 98, 255]}, {"name": "\uacbd\ubcf5\uad81", "coordinates": [126.97875, 37.57558], "color": [199, 98, 255]}, {"name": "\uc548\uad6d\uc5ed.\uc885\ub85c\uacbd\ucc30\uc11c.\uc778\uc0ac\ub3d9", "coordinates": [126.98424, 37.57578], "color": [199, 98, 255]}, {"name": "\ucc3d\ub355\uad81.\uc6b0\ub9ac\uc18c\ub9ac\ubc15\ubb3c\uad00", "coordinates": [126.98863, 37.57727], "color": [199, 98, 255]}, {"name": "\ucc3d\ub355\uad81.\ub3c8\ud654\ubb38\uad6d\uc545\ub2f9", "coordinates": [126.99108, 37.5773], "color": [199, 98, 255]}, {"name": "\uc6d0\ub0a8\ub3d9\uc0ac\uac70\ub9ac", "coordinates": [126.99821, 37.57572], "color": [199, 98, 255]}, {"name": "\ud604\ub300\uadf8\ub8f9\ube4c\ub529", "coordinates": [127.00053, 37.57587], "color": [199, 98, 255]}, {"name": "\ubc29\uc1a1\ud1b5\uc2e0\ub300.\uc774\ud654\uc7a5", "coordinates": [127.00244, 37.57804], "color": [199, 98, 255]}, {"name": "\ud61c\ud654\uc5ed.\ub9c8\ub85c\ub2c8\uc5d0\uacf5\uc6d0", "coordinates": [127.00228, 37.58112], "color": [199, 98, 255]}, {"name": "\ud61c\ud654\uc5ed.\ub3d9\uc131\uc911\uace0(\uc7a5\uba74\ucd1d\ub9ac\uac00\uc625)", "coordinates": [127.00172, 37.58457], "color": [199, 98, 255]}, {"name": "\uc0bc\uc120\uad50.\ud55c\uc131\ub300\ud559\uad50.\uc870\uc18c\uc559\ud65c\ub3d9\ud130", "coordinates": [127.00837, 37.58931], "color": [199, 98, 255]}, {"name": "\ub3c8\uc554\uc0ac\uac70\ub9ac.\uc131\uc2e0\uc5ec\ub300\uc785\uad6c", "coordinates": [127.01784, 37.59331], "color": [199, 98, 255]}, {"name": "\ubbf8\uc544\ub9ac\uace0\uac1c.\ubbf8\uc544\ub9ac\uc608\uc220\uadf9\uc7a5", "coordinates": [127.02182, 37.59792], "color": [199, 98, 255]}, {"name": "\ub3c8\uc554\ub3d9\uc0bc\uc131\uc544\ud30c\ud2b8\uc785\uad6c", "coordinates": [127.02458, 37.60187], "color": [199, 98, 255]}, {"name": "\uae38\uc74c\ub3d9\ub3d9\ubd80\uc544\ud30c\ud2b8", "coordinates": [127.02354, 37.60781], "color": [199, 98, 255]}, {"name": "\ubbf8\uc544\ucd08\uad50", "coordinates": [127.02247, 37.61089], "color": [199, 98, 255]}, {"name": "\uc1a1\ucc9c\ucd08\ub4f1\ud559\uad50.\ubbf8\uc544\ub274\ud0c0\uc6b4\uc785\uad6c", "coordinates": [127.02231, 37.6141], "color": [199, 98, 255]}, {"name": "\uc0bc\uc591\ub3d9\uc0ac\uac70\ub9ac", "coordinates": [127.02146, 37.61853], "color": [199, 98, 255]}, {"name": "\uac15\ubd81\uccad\uc18c\ub144\ubb38\ud654\uc815\ubcf4\ub3c4\uc11c\uad00\uc785\uad6c", "coordinates": [127.02059, 37.62152], "color": [199, 98, 255]}, {"name": "\uc0bc\uc591\ucd08\ub4f1\ud559\uad50", "coordinates": [127.01909, 37.62341], "color": [199, 98, 255]}, {"name": "\ub86f\ub370\ub9c8\ud2b8\uc0bc\uc591\uc810.\ub798\ubbf8\uc5481\ucc28\uc544\ud30c\ud2b8", "coordinates": [127.01848, 37.6253], "color": [199, 98, 255]}, {"name": "\ube68\ub798\uace8\uc785\uad6c", "coordinates": [127.01798, 37.63001], "color": [199, 98, 255]}, {"name": "\ud654\uacc4\uc0ac\uc785\uad6c", "coordinates": [127.0177, 37.63325], "color": [199, 98, 255]}, {"name": "\uc6b0\uc774\ucd08\ub4f1\ud559\uad50", "coordinates": [127.01736, 37.63681], "color": [199, 98, 255]}, {"name": "\uac00\uc624\ub9ac\uc5ed", "coordinates": [127.01681, 37.64168], "color": [199, 98, 255]}, {"name": "\uc778\uc218\ub3d9\uc7a5\ubbf8\uc6d0", "coordinates": [127.016, 37.6446], "color": [199, 98, 255]}, {"name": "\uad6d\ub9bd4.19\ubbfc\uc8fc\ubb18\uc9c0\uc785\uad6c\uc0ac\uac70\ub9ac", "coordinates": [127.01402, 37.64911], "color": [199, 98, 255]}, {"name": "\ub355\uc131\uc5ec\ub300\uc785\uad6c", "coordinates": [127.01314, 37.65106], "color": [199, 98, 255]}, {"name": "\uc11c\ub77c\ubc8c\uc911\ud559\uad50.\uc6b0\uc774\ub3d9\ub300\uc6b0\uc544\ud30c\ud2b8", "coordinates": [127.01322, 37.65503], "color": [199, 98, 255]}, {"name": "\ubd81\uc11c\uc6b8\uad50\ud68c", "coordinates": [127.01365, 37.65726], "color": [199, 98, 255]}, {"name": "\ub3d9\uc544\uc6b4\uc218\uc55e", "coordinates": [127.014, 37.65891], "color": [199, 98, 255]}, {"name": "\uc6b0\uc774\ub3d9\uc131\uc6d0\uc544\ud30c\ud2b8", "coordinates": [127.01336, 37.66205], "color": [199, 98, 255]}, {"name": "\uc601\uc2e0\uc5ec\uac1d\ucc28\uace0\uc9c0(\uc6b0\uc774\ub3d9\uc885\uc810)", "coordinates": [127.01185, 37.66314], "color": [199, 98, 255]}, {"name": "\uc815\ub989\ubd81\ud55c\uc0b0\uad6d\ub9bd\uacf5\uc6d0\uc785\uad6c", "coordinates": [126.99951, 37.61759], "color": [1, 132, 147]}, {"name": "\uc815\ub989\uc0b0\uc7a5\uc544\ud30c\ud2b8", "coordinates": [127.0028, 37.61689], "color": [1, 132, 147]}, {"name": "\uc815\ub9894\ub3d9\uc8fc\ubbfc\uc13c\ud130.\uacbd\uad6d\uc0ac", "coordinates": [127.00625, 37.61352], "color": [1, 132, 147]}, {"name": "\ubd81\ud55c\uc0b0\ubcf4\uad6d\ubb38\uc5ed2\ubc88\ucd9c\uad6c", "coordinates": [127.00799, 37.61229], "color": [1, 132, 147]}, {"name": "\uc131\ubd81\uccad\uc218\ub3c4\uc11c\uad00.\uc815\ub9894\ub3d9\uc131\ub2f9", "coordinates": [127.00842, 37.61157], "color": [1, 132, 147]}, {"name": "\uc815\ub989\uc2dc\uc7a5\uc785\uad6c", "coordinates": [127.00982, 37.60847], "color": [1, 132, 147]}, {"name": "\uc815\ub989\uc6b0\uccb4\uad6d\uc55e", "coordinates": [127.01141, 37.60516], "color": [1, 132, 147]}, {"name": "\ubd09\uad6d\uc0ac", "coordinates": [127.00766, 37.60614], "color": [1, 132, 147]}, {"name": "\uace0\ub824\ub300\uc0ac\ubc94\ub300\ud559\ubd80\uc18d\uace0\ub4f1\ud559\uad50", "coordinates": [127.00238, 37.60789], "color": [1, 132, 147]}, {"name": "\uccad\ub355\ucd08\uad50", "coordinates": [127.00006, 37.60863], "color": [1, 132, 147]}, {"name": "\uad6d\ubbfc\ub300\ud559\uad50\uc55e", "coordinates": [126.99477, 37.61072], "color": [1, 132, 147]}, {"name": "\ub86f\ub370\uc544\ud30c\ud2b8", "coordinates": [126.97647, 37.61043], "color": [1, 132, 147]}, {"name": "\uc77c\uc131\uc544\ud30c\ud2b8", "coordinates": [126.973, 37.60877], "color": [1, 132, 147]}, {"name": "\ud3c9\ucc3d\ub3d9\uc8fc\ubbfc\uc13c\ud130", "coordinates": [126.96957, 37.60661], "color": [1, 132, 147]}, {"name": "\ud3c9\ucc3d\ud30c\ucd9c\uc18c", "coordinates": [126.96604, 37.60532], "color": [1, 132, 147]}, {"name": "\uac11\uc744\uc528\ud2f0\ud154\uc55e", "coordinates": [126.96354, 37.60437], "color": [1, 132, 147]}, {"name": "\uc138\uac80\uc815\ucd08\ub4f1\ud559\uad50", "coordinates": [126.96122, 37.6025], "color": [1, 132, 147]}, {"name": "\uc138\uac80\uc815.\uc0c1\uba85\ub300", "coordinates": [126.95872, 37.60073], "color": [1, 132, 147]}, {"name": "\ud64d\uc9c0\ubb38", "coordinates": [126.95626, 37.59691], "color": [1, 132, 147]}, {"name": "\uc720\uc6d0\ud558\ub098\uc544\ud30c\ud2b8", "coordinates": [126.95213, 37.59576], "color": [1, 132, 147]}, {"name": "\uc11c\uc6b8\uc5ec\uc790\uac04\ud638\ub300\ud559", "coordinates": [126.94871, 37.59564], "color": [1, 132, 147]}, {"name": "\ubb38\ud654\ucd0c\ud604\ub300\uc544\ud30c\ud2b8", "coordinates": [126.94706, 37.59282], "color": [1, 132, 147]}, {"name": "\uc720\uc9c4\uc0c1\uac00", "coordinates": [126.94326, 37.59219], "color": [1, 132, 147]}, {"name": "\ud64d\uc740\ud604\ub300\uc544\ud30c\ud2b8", "coordinates": [126.93873, 37.59022], "color": [1, 132, 147]}, {"name": "\uc815\uc6d0\uc5ec\uc911.\uc2a4\uc704\uc2a4\uadf8\ub79c\ub4dc\ud638\ud154", "coordinates": [126.9351, 37.58743], "color": [1, 132, 147]}, {"name": "\ub3d9\uc2e0\ubcd1\uc6d0", "coordinates": [126.93598, 37.5811], "color": [1, 132, 147]}, {"name": "\uc11c\ub300\ubb38\uad6c\uccad.\uc11c\ub300\ubb38\uad6c\uc758\ud68c", "coordinates": [126.93584, 37.57862], "color": [1, 132, 147]}, {"name": "\uc11c\ub300\ubb38\uc790\uc5f0\uc0ac\ubc15\ubb3c\uad00\uc785\uad6c", "coordinates": [126.93514, 37.57518], "color": [1, 132, 147]}, {"name": "\ud55c\uc131\ud654\uad50\uc911\uace0\uad50.\uc11c\ub300\ubb38\uc18c\ubc29\uc11c", "coordinates": [126.93521, 37.57248], "color": [1, 132, 147]}, {"name": "\uc5f0\ud76c3\uac70\ub9ac", "coordinates": [126.93176, 37.56808], "color": [1, 132, 147]}, {"name": "\uc5f0\ud76c\uad50\ucc28\ub85c", "coordinates": [126.93023, 37.56617], "color": [1, 132, 147]}, {"name": "\uc5f0\ub0a8\ub3d9", "coordinates": [126.92754, 37.56252], "color": [1, 132, 147]}, {"name": "\ub3d9\uad50\ub3d9\uc0bc\uac70\ub9ac", "coordinates": [126.92846, 37.55806], "color": [1, 132, 147]}, {"name": "\uc2e0\ucd0c\uc5ed", "coordinates": [126.93476, 37.55564], "color": [1, 132, 147]}, {"name": "\uc2e0\ucd0c\ub85c\ud130\ub9ac", "coordinates": [126.93688, 37.55381], "color": [1, 132, 147]}, {"name": "\uc11c\uac15\ub300\ud559\uad50", "coordinates": [126.93732, 37.55183], "color": [1, 132, 147]}, {"name": "\uad11\uc131\uc911\uace0\ub4f1\ud559\uad50", "coordinates": [126.93867, 37.54935], "color": [1, 132, 147]}, {"name": "\ub300\ud765\uc5ed", "coordinates": [126.94099, 37.54811], "color": [1, 132, 147]}, {"name": "\uc6a9\uac15\ucd08\ub4f1\ud559\uad50", "coordinates": [126.94351, 37.54698], "color": [1, 132, 147]}, {"name": "\ub3d9\ub3c4\uc911\ud559\uad50.\uc11c\uc6b8\ub514\uc790\uc778\uace0\ub4f1\ud559\uad50", "coordinates": [126.94657, 37.54575], "color": [1, 132, 147]}, {"name": "\uacf5\ub355\uc5ed1\ubc88\ucd9c\uad6c", "coordinates": [126.94932, 37.54443], "color": [1, 132, 147]}, {"name": "\uacf5\ub355\uc624\uac70\ub9ac", "coordinates": [126.95295, 37.54285], "color": [1, 132, 147]}, {"name": "\uc6a9\ub9c8\ub8e8\uace0\uac1c.\ube0c\ub77c\uc6b4\uc2a4\ud1a4\uacf5\ub355\uc544\ud30c\ud2b8", "coordinates": [126.95705, 37.54099], "color": [1, 132, 147]}, {"name": "\uc6a9\ub9c8\ub8e8\uace0\uac1c.\ud6a8\ucc3d\ud30c\ud06c\ud478\ub974\uc9c0\uc624\uc544\ud30c\ud2b8", "coordinates": [126.95855, 37.5403], "color": [1, 132, 147]}, {"name": "\ud6a8\ucc3d\uacf5\uc6d0\uc55e\uc5ed.\uc774\ubd09\ucc3d\uc5ed\uc0ac\uc6b8\ub9bc\uad00", "coordinates": [126.9625, 37.53881], "color": [1, 132, 147]}, {"name": "\uc6a9\uc0b0\uafc8\ub098\ubb34\uc885\ud569\ud0c0\uc6b4.\ubcf4\uac74\ubd84\uc18c", "coordinates": [126.96465, 37.5383], "color": [1, 132, 147]}, {"name": "\uc6d0\ud6a8\ub85c\uc81c1\ub3d9\uc8fc\ubbfc\uc13c\ud130", "coordinates": [126.96718, 37.5376], "color": [1, 132, 147]}, {"name": "\uc804\uc7c1\uae30\ub150\uad00", "coordinates": [126.97734, 37.53443], "color": [1, 132, 147]}, {"name": "\ub179\uc0ac\ud3c9\uc5ed", "coordinates": [126.9853, 37.53476], "color": [1, 132, 147]}, {"name": "\uc6a9\uc0b0\uad6c\uccad.\uc774\ud0dc\uc6d0\uc2dc\uc7a5", "coordinates": [126.98991, 37.53406], "color": [1, 132, 147]}, {"name": "\uc774\ud0dc\uc6d0\uc5ed4\ubc88\ucd9c\uad6c.\ud574\ubc00\ud134\ud638\ud154", "coordinates": [126.99315, 37.53428], "color": [1, 132, 147]}, {"name": "\uc774\ud0dc\uc6d0119\uc548\uc804\uc13c\ud130", "coordinates": [126.99719, 37.53454], "color": [1, 132, 147]}, {"name": "\ud55c\ub0a8\ub3d9\uc8fc\ubbfc\uc13c\ud130", "coordinates": [127.0006, 37.53671], "color": [1, 132, 147]}, {"name": "\ud55c\uac15\uc9c4\uc5ed.\ube14\ub8e8\uc2a4\ud018\uc5b4", "coordinates": [127.00211, 37.54087], "color": [1, 132, 147]}, {"name": "\uc11c\uc6b8\uc2dc\uc911\ubd80\uae30\uc220\uad50\uc721\uc6d0.\ube14\ub8e8\uc2a4\ud018\uc5b4", "coordinates": [127.00318, 37.54117], "color": [1, 132, 147]}, {"name": "\uc21c\ucc9c\ud5a5\ub300\ud559\ubcd1\uc6d0.\ud55c\ub0a8\uc624\uac70\ub9ac", "coordinates": [127.00573, 37.53549], "color": [1, 132, 147]}, {"name": "\ud55c\ub0a8\ub3d9", "coordinates": [127.0087, 37.53375], "color": [1, 132, 147]}, {"name": "\ud55c\ub0a8\uc2dc\ubc94\uc544\ud30c\ud2b8", "coordinates": [127.01267, 37.5377], "color": [1, 132, 147]}, {"name": "\uc625\uc815\uc911\ud559\uad50\uc785\uad6c", "coordinates": [127.0113, 37.5409], "color": [1, 132, 147]}, {"name": "\uc625\uc218\uc0bc\uc131\uc544\ud30c\ud2b8.\ub798\ubbf8\uc548\uc625\uc218\ub9ac\ubc84\uc820", "coordinates": [127.01485, 37.54362], "color": [1, 132, 147]}, {"name": "\ubbf8\ud0c0\uc0ac\uc785\uad6c", "coordinates": [127.01684, 37.54486], "color": [1, 132, 147]}, {"name": "\uae08\uc625\ucd08\ub4f1\ud559\uad50\uc55e", "coordinates": [127.01989, 37.54697], "color": [1, 132, 147]}, {"name": "\uae08\ub0a8\uc2dc\uc7a5\uc55e.\ubc31\ubc94\ud559\uc6d0\ud130", "coordinates": [127.02187, 37.54809], "color": [1, 132, 147]}, {"name": "\ud790\uc2a4\ud14c\uc774\ud2b8\uc11c\uc6b8\uc232\ub9ac\ubc84\uc544\ud30c\ud2b8", "coordinates": [127.02706, 37.54789], "color": [1, 132, 147]}, {"name": "\uc751\ubd09\ub3d9\ud604\ub300\uc544\ud30c\ud2b8", "coordinates": [127.03044, 37.54962], "color": [1, 132, 147]}, {"name": "\uc751\ubd09\ub3d9\uc8fc\ubbfc\uc13c\ud130", "coordinates": [127.0335, 37.5534], "color": [1, 132, 147]}, {"name": "\uc751\ubd09\uc0ac\uac70\ub9ac", "coordinates": [127.03446, 37.55529], "color": [1, 132, 147]}, {"name": "\ubb34\ud559\uc5ec\uace0\uc55e", "coordinates": [127.03424, 37.55801], "color": [1, 132, 147]}, {"name": "\uc131\ub3d9\uad6c\uccad", "coordinates": [127.03642, 37.56396], "color": [1, 132, 147]}, {"name": "\ub3c4\uc120\uc0ac\uac70\ub9ac", "coordinates": [127.03691, 37.56682], "color": [1, 132, 147]}, {"name": "\ub9c8\uc7a5\ucd95\uc0b0\ubb3c\uc2dc\uc7a5", "coordinates": [127.03802, 37.57095], "color": [1, 132, 147]}, {"name": "\ub3d9\ub300\ubb38\uad6c\uccad.\uc6a9\ub450\uc5ed3\ubc88\ucd9c\uad6c", "coordinates": [127.03835, 37.57554], "color": [1, 132, 147]}, {"name": "\ub3d9\ub300\ubb38\uad6c\uccad.\uc6a9\uc2e0\ub3d9\uc8fc\ubbfc\uc13c\ud130", "coordinates": [127.03842, 37.57658], "color": [1, 132, 147]}, {"name": "\uacbd\ub3d9\uc2dc\uc7a5\uc55e", "coordinates": [127.03866, 37.58057], "color": [1, 132, 147]}, {"name": "\ud64d\ud30c\ucd08\ub4f1\ud559\uad50", "coordinates": [127.03864, 37.58553], "color": [1, 132, 147]}, {"name": "\uc81c\uae30\ub3d9\ud55c\uc2e0\uc544\ud30c\ud2b8\uc55e", "coordinates": [127.03789, 37.5876], "color": [1, 132, 147]}, {"name": "\uace0\ub824\ub300\uc5ed.\uace0\ub300\uc55e\uc0bc\uac70\ub9ac", "coordinates": [127.03647, 37.59026], "color": [1, 132, 147]}, {"name": "\uc22d\ub840\ucd08\ub4f1\ud559\uad50", "coordinates": [127.03617, 37.5944], "color": [1, 132, 147]}, {"name": "\uc885\uc554\ub3d9\uc8fc\ubbfc\uc13c\ud130", "coordinates": [127.03494, 37.59819], "color": [1, 132, 147]}, {"name": "\uc885\uc554\uc0ac\uac70\ub9ac\uc785\uad6c", "coordinates": [127.03379, 37.60104], "color": [1, 132, 147]}, {"name": "\ub3c8\uc5541\ub3d9\uc8fc\ubbfc\uc13c\ud130", "coordinates": [127.02667, 37.60456], "color": [1, 132, 147]}, {"name": "\uae38\uc74c\uc5ed", "coordinates": [127.0237, 37.60201], "color": [1, 132, 147]}, {"name": "\uae38\uc74c\ub274\ud0c0\uc6b410\ub2e8\uc9c0.\ub77c\uc628\uc720\uc544\ud30c\ud2b8", "coordinates": [127.01813, 37.60299], "color": [1, 132, 147]}, {"name": "\uc22d\ub355\ucd08\uad50", "coordinates": [127.01511, 37.6037], "color": [1, 132, 147]}, {"name": "\uc815\ub989\uc6b0\uccb4\uad6d\uc55e", "coordinates": [127.01166, 37.60514], "color": [1, 132, 147]}, {"name": "\uc815\ub989\uc2dc\uc7a5\uc785\uad6c", "coordinates": [127.01015, 37.60803], "color": [1, 132, 147]}, {"name": "\uc131\ubd81\uccad\uc218\ub3c4\uc11c\uad00.\uc815\ub9894\ub3d9\uc131\ub2f9", "coordinates": [127.0089, 37.61108], "color": [1, 132, 147]}, {"name": "\ubd81\ud55c\uc0b0\ubcf4\uad6d\ubb38\uc5ed1\ubc88\ucd9c\uad6c", "coordinates": [127.00833, 37.61208], "color": [1, 132, 147]}, {"name": "\uc815\ub9894\ub3d9\uc8fc\ubbfc\uc13c\ud130.\uacbd\uad6d\uc0ac", "coordinates": [127.00645, 37.61351], "color": [1, 132, 147]}, {"name": "\uc815\ub989\ub300\uc6b0\uc544\ud30c\ud2b8", "coordinates": [127.00386, 37.61671], "color": [1, 132, 147]}, {"name": "\uc815\ub989\ubd81\ud55c\uc0b0\uad6d\ub9bd\uacf5\uc6d0\uc785\uad6c", "coordinates": [126.99977, 37.61767], "color": [1, 132, 147]}, {"name": "\uc815\ub989\ubd81\ud55c\uc0b0\uad6d\ub9bd\uacf5\uc6d0\uc785\uad6c", "coordinates": [126.99951, 37.61759], "color": [69, 95, 242]}, {"name": "\uc815\ub989\uc0b0\uc7a5\uc544\ud30c\ud2b8", "coordinates": [127.0028, 37.61689], "color": [69, 95, 242]}, {"name": "\uc815\ub9894\ub3d9\uc8fc\ubbfc\uc13c\ud130.\uacbd\uad6d\uc0ac", "coordinates": [127.00625, 37.61352], "color": [69, 95, 242]}, {"name": "\ubd81\ud55c\uc0b0\ubcf4\uad6d\ubb38\uc5ed2\ubc88\ucd9c\uad6c", "coordinates": [127.00799, 37.61229], "color": [69, 95, 242]}, {"name": "\uc131\ubd81\uccad\uc218\ub3c4\uc11c\uad00.\uc815\ub9894\ub3d9\uc131\ub2f9", "coordinates": [127.00842, 37.61157], "color": [69, 95, 242]}, {"name": "\uc815\ub989\uc2dc\uc7a5\uc785\uad6c", "coordinates": [127.00982, 37.60847], "color": [69, 95, 242]}, {"name": "\uc815\ub989\uc6b0\uccb4\uad6d\uc55e", "coordinates": [127.01141, 37.60516], "color": [69, 95, 242]}, {"name": "\uc22d\ub355\ucd08\uad50", "coordinates": [127.01468, 37.60336], "color": [69, 95, 242]}, {"name": "\uc815\ub989\uae38\uc74c\uc2dc\uc7a5", "coordinates": [127.01909, 37.60218], "color": [69, 95, 242]}, {"name": "\ub3c8\uc554\ub3d9\uc0bc\uc131\uc544\ud30c\ud2b8\uc785\uad6c", "coordinates": [127.02458, 37.60187], "color": [69, 95, 242]}, {"name": "\ub3c8\uc5541\ub3d9\uc8fc\ubbfc\uc13c\ud130", "coordinates": [127.02658, 37.6038], "color": [69, 95, 242]}, {"name": "\uc885\uc554\uc0ac\uac70\ub9ac", "coordinates": [127.03117, 37.60361], "color": [69, 95, 242]}, {"name": "\uc885\uc554\uc0ac\uac70\ub9ac\uc785\uad6c", "coordinates": [127.03304, 37.60143], "color": [69, 95, 242]}, {"name": "\uc885\uc554\ub3d9\uc8fc\ubbfc\uc13c\ud130", "coordinates": [127.03411, 37.59942], "color": [69, 95, 242]}, {"name": "\uc22d\ub840\ucd08\uad50", "coordinates": [127.03568, 37.59481], "color": [69, 95, 242]}, {"name": "\uace0\ub824\ub300\uc5ed.\uace0\ub300\uc55e\uc0bc\uac70\ub9ac", "coordinates": [127.03665, 37.58875], "color": [69, 95, 242]}, {"name": "\ud64d\ud30c\ucd08\ub4f1\ud559\uad50", "coordinates": [127.03834, 37.5856], "color": [69, 95, 242]}, {"name": "\uc81c\uae30\ub3d9\uc8fc\ubbfc\uc13c\ud130.\uc11c\uc6b8\uc57d\ub839\uc2dc\uc55e", "coordinates": [127.03839, 37.58193], "color": [69, 95, 242]}, {"name": "\uacbd\ub3d9\uc2dc\uc7a5", "coordinates": [127.03828, 37.57996], "color": [69, 95, 242]}, {"name": "\uacbd\ub3d9\uc2dc\uc7a5\uc0ac\uac70\ub9ac", "coordinates": [127.03811, 37.57723], "color": [69, 95, 242]}, {"name": "\ub3d9\ub300\ubb38\uad6c\uccad.\uc6a9\uc2e0\ub3d9\uc8fc\ubbfc\uc13c\ud130", "coordinates": [127.038, 37.5755], "color": [69, 95, 242]}, {"name": "\ub9c8\uc7a5\ucd95\uc0b0\ubb3c\uc2dc\uc7a5", "coordinates": [127.03751, 37.57026], "color": [69, 95, 242]}, {"name": "\ub3c4\uc120\uc0ac\uac70\ub9ac", "coordinates": [127.03643, 37.5664], "color": [69, 95, 242]}, {"name": "\uc131\ub3d9\uad6c\uccad", "coordinates": [127.03567, 37.56238], "color": [69, 95, 242]}, {"name": "\ubb34\ud559\uc5ec\uace0", "coordinates": [127.03387, 37.5579], "color": [69, 95, 242]}, {"name": "\uc751\ubd09\ub3d9\uc8fc\ubbfc\uc13c\ud130", "coordinates": [127.03344, 37.55376], "color": [69, 95, 242]}, {"name": "\uc751\ubd09\ub3d9\ud604\ub300\uc544\ud30c\ud2b8", "coordinates": [127.0309, 37.55022], "color": [69, 95, 242]}, {"name": "\uc0bc\uc131\ub798\ubbf8\uc548\uc544\ud30c\ud2b8\uc55e", "coordinates": [127.02751, 37.54835], "color": [69, 95, 242]}, {"name": "\uae08\ub0a8\uc2dc\uc7a5\uc55e.\ubc31\ubc94\ud559\uc6d0\ud130", "coordinates": [127.02249, 37.54829], "color": [69, 95, 242]}, {"name": "\uae08\uc625\ucd08\ub4f1\ud559\uad50\uc55e", "coordinates": [127.01832, 37.54631], "color": [69, 95, 242]}, {"name": "\uc625\uc218\uc0bc\uc131\uc544\ud30c\ud2b8.\ub798\ubbf8\uc548\uc625\uc218\ub9ac\ubc84\uc820", "coordinates": [127.01466, 37.5438], "color": [69, 95, 242]}, {"name": "\uc625\uc815\uc911\ud559\uad50\uc785\uad6c", "coordinates": [127.011, 37.54088], "color": [69, 95, 242]}, {"name": "\ud55c\ub0a8\uc2dc\ubc94\uc544\ud30c\ud2b8", "coordinates": [127.01226, 37.53794], "color": [69, 95, 242]}, {"name": "\ud55c\ub0a8\ub3d9", "coordinates": [127.00844, 37.53391], "color": [69, 95, 242]}, {"name": "\uc21c\ucc9c\ud5a5\ub300\ud559\ubcd1\uc6d0", "coordinates": [127.00573, 37.53644], "color": [69, 95, 242]},